[
{
"ccomune":"ALTRO",
"cprovincia":"ALTRO",
"cregione":"ALTRO",
"cnome":"",
"canno_inserimento":"2011",
"cdata_e_ora_inserimento":"2011-06-25T23:17:43Z",
"cidentificatore_in_openstreetmap":"1339088150",
"clongitudine":"13.733257",
"clatitudine":"45.5758303"
}
,
{
"ccomune":"ALTRO",
"cprovincia":"ALTRO",
"cregione":"ALTRO",
"cnome":"Lenny's Pub",
"canno_inserimento":"2011",
"cdata_e_ora_inserimento":"2011-07-29T17:22:56Z",
"cidentificatore_in_openstreetmap":"1375887295",
"clongitudine":"12.4186811",
"clatitudine":"46.7475835999999"
}
,
{
"ccomune":"ALTRO",
"cprovincia":"ALTRO",
"cregione":"ALTRO",
"cnome":"Murrayfield Pub",
"canno_inserimento":"2015",
"cdata_e_ora_inserimento":"2015-10-24T09:28:06Z",
"cidentificatore_in_openstreetmap":"3323888102",
"clongitudine":"9.02958469999999",
"clatitudine":"45.8313400999999"
}
,
{
"ccomune":"ALTRO",
"cprovincia":"ALTRO",
"cregione":"ALTRO",
"cnome":"Snop?e",
"canno_inserimento":"2010",
"cdata_e_ora_inserimento":"2010-09-22T08:32:52Z",
"cidentificatore_in_openstreetmap":"921157802",
"clongitudine":"13.6409389",
"clatitudine":"45.9546065999999"
}
,
{
"ccomune":"Ala di Stura",
"cprovincia":"TORINO",
"cregione":"Piemonte",
"cnome":"",
"canno_inserimento":"2012",
"cdata_e_ora_inserimento":"2012-05-21T14:28:45Z",
"cidentificatore_in_openstreetmap":"1760949034",
"clongitudine":"7.3073057",
"clatitudine":"45.3131498999999"
}
,
{
"ccomune":"Banchette",
"cprovincia":"TORINO",
"cregione":"Piemonte",
"cnome":"Pub Sheerwood",
"canno_inserimento":"2014",
"cdata_e_ora_inserimento":"2014-02-04T19:29:54Z",
"cidentificatore_in_openstreetmap":"1876542080",
"clongitudine":"7.8551233",
"clatitudine":"45.4527204999999"
}
,
{
"ccomune":"Bardonecchia",
"cprovincia":"TORINO",
"cregione":"Piemonte",
"cnome":"",
"canno_inserimento":"2015",
"cdata_e_ora_inserimento":"2015-08-17T08:56:08Z",
"cidentificatore_in_openstreetmap":"3700735146",
"clongitudine":"6.7089579",
"clatitudine":"45.0776309999999"
}
,
{
"ccomune":"Cambiano",
"cprovincia":"TORINO",
"cregione":"Piemonte",
"cnome":"Walter's Pub",
"canno_inserimento":"2012",
"cdata_e_ora_inserimento":"2012-09-28T10:47:19Z",
"cidentificatore_in_openstreetmap":"1936592331",
"clongitudine":"7.7633976",
"clatitudine":"44.972413"
}
,
{
"ccomune":"Carema",
"cprovincia":"TORINO",
"cregione":"Piemonte",
"cnome":"",
"canno_inserimento":"2012",
"cdata_e_ora_inserimento":"2012-02-15T19:04:17Z",
"cidentificatore_in_openstreetmap":"1632852925",
"clongitudine":"7.8040071",
"clatitudine":"45.5863822999999"
}
,
{
"ccomune":"Carignano",
"cprovincia":"TORINO",
"cregione":"Piemonte",
"cnome":"I rubinetti",
"canno_inserimento":"2016",
"cdata_e_ora_inserimento":"2016-02-08T23:56:28Z",
"cidentificatore_in_openstreetmap":"3996476429",
"clongitudine":"7.6748871",
"clatitudine":"44.9068159999999"
}
,
{
"ccomune":"Ceres",
"cprovincia":"TORINO",
"cregione":"Piemonte",
"cnome":"Al Vecchio Campanile",
"canno_inserimento":"2012",
"cdata_e_ora_inserimento":"2012-05-21T08:54:35Z",
"cidentificatore_in_openstreetmap":"1756203588",
"clongitudine":"7.3887335",
"clatitudine":"45.3153689"
}
,
{
"ccomune":"Cesana Torinese",
"cprovincia":"TORINO",
"cregione":"Piemonte",
"cnome":"Pig Steack House",
"canno_inserimento":"2015",
"cdata_e_ora_inserimento":"2015-01-22T13:09:52Z",
"cidentificatore_in_openstreetmap":"3304134316",
"clongitudine":"6.7911903",
"clatitudine":"44.9520976"
}
,
{
"ccomune":"Chieri",
"cprovincia":"TORINO",
"cregione":"Piemonte",
"cnome":"",
"canno_inserimento":"2012",
"cdata_e_ora_inserimento":"2012-05-03T21:10:50Z",
"cidentificatore_in_openstreetmap":"1739742873",
"clongitudine":"7.8217643",
"clatitudine":"45.0106401999999"
}
,
{
"ccomune":"Chieri",
"cprovincia":"TORINO",
"cregione":"Piemonte",
"cnome":"",
"canno_inserimento":"2016",
"cdata_e_ora_inserimento":"2016-02-09T16:31:57Z",
"cidentificatore_in_openstreetmap":"1739770908",
"clongitudine":"7.8173708",
"clatitudine":"45.0096617"
}
,
{
"ccomune":"Chieri",
"cprovincia":"TORINO",
"cregione":"Piemonte",
"cnome":"",
"canno_inserimento":"2016",
"cdata_e_ora_inserimento":"2016-02-10T15:16:15Z",
"cidentificatore_in_openstreetmap":"1739742869",
"clongitudine":"7.8199189",
"clatitudine":"45.0104733"
}
,
{
"ccomune":"Chivasso",
"cprovincia":"TORINO",
"cregione":"Piemonte",
"cnome":"Cafè Racer Shop",
"canno_inserimento":"2014",
"cdata_e_ora_inserimento":"2014-11-11T16:23:16Z",
"cidentificatore_in_openstreetmap":"582148450",
"clongitudine":"7.8928781",
"clatitudine":"45.195449"
}
,
{
"ccomune":"Cinzano",
"cprovincia":"TORINO",
"cregione":"Piemonte",
"cnome":"Bucaniers",
"canno_inserimento":"2010",
"cdata_e_ora_inserimento":"2010-01-24T20:19:09Z",
"cidentificatore_in_openstreetmap":"618932731",
"clongitudine":"7.9260656",
"clatitudine":"45.0954476"
}
,
{
"ccomune":"Claviere",
"cprovincia":"TORINO",
"cregione":"Piemonte",
"cnome":"Stella Alpini",
"canno_inserimento":"2012",
"cdata_e_ora_inserimento":"2012-01-15T09:51:59Z",
"cidentificatore_in_openstreetmap":"1590396043",
"clongitudine":"6.7497537",
"clatitudine":"44.938738"
}
,
{
"ccomune":"Foglizzo",
"cprovincia":"TORINO",
"cregione":"Piemonte",
"cnome":"Bounty RistoPub",
"canno_inserimento":"2014",
"cdata_e_ora_inserimento":"2014-03-06T15:29:42Z",
"cidentificatore_in_openstreetmap":"2704122403",
"clongitudine":"7.8216443",
"clatitudine":"45.2712476"
}
,
{
"ccomune":"Giaglione",
"cprovincia":"TORINO",
"cregione":"Piemonte",
"cnome":"Mickye Mouse",
"canno_inserimento":"2015",
"cdata_e_ora_inserimento":"2015-04-22T18:46:07Z",
"cidentificatore_in_openstreetmap":"3425389622",
"clongitudine":"7.0128387",
"clatitudine":"45.1395513"
}
,
{
"ccomune":"Ivrea",
"cprovincia":"TORINO",
"cregione":"Piemonte",
"cnome":"Ponte Vecchio",
"canno_inserimento":"2014",
"cdata_e_ora_inserimento":"2014-01-29T16:06:27Z",
"cidentificatore_in_openstreetmap":"1892958250",
"clongitudine":"7.8711875",
"clatitudine":"45.4648473"
}
,
{
"ccomune":"Mattie",
"cprovincia":"TORINO",
"cregione":"Piemonte",
"cnome":"",
"canno_inserimento":"2013",
"cdata_e_ora_inserimento":"2013-07-27T11:33:37Z",
"cidentificatore_in_openstreetmap":"2398232105",
"clongitudine":"7.1297558",
"clatitudine":"45.1201569999999"
}
,
{
"ccomune":"Mompantero",
"cprovincia":"TORINO",
"cregione":"Piemonte",
"cnome":"Diamond Cave",
"canno_inserimento":"2015",
"cdata_e_ora_inserimento":"2015-02-19T12:06:42Z",
"cidentificatore_in_openstreetmap":"3359329146",
"clongitudine":"7.0423195",
"clatitudine":"45.1465596"
}
,
{
"ccomune":"Moncalieri",
"cprovincia":"TORINO",
"cregione":"Piemonte",
"cnome":"BEFeD Moncalieri",
"canno_inserimento":"2013",
"cdata_e_ora_inserimento":"2013-09-03T14:06:05Z",
"cidentificatore_in_openstreetmap":"2214951950",
"clongitudine":"7.7074804",
"clatitudine":"44.9765874"
}
,
{
"ccomune":"Moncalieri",
"cprovincia":"TORINO",
"cregione":"Piemonte",
"cnome":"The Karryman",
"canno_inserimento":"2015",
"cdata_e_ora_inserimento":"2015-04-11T20:51:54Z",
"cidentificatore_in_openstreetmap":"3451125833",
"clongitudine":"7.6705818",
"clatitudine":"45.0020338"
}
,
{
"ccomune":"Orbassano",
"cprovincia":"TORINO",
"cregione":"Piemonte",
"cnome":"New Duke",
"canno_inserimento":"2015",
"cdata_e_ora_inserimento":"2015-12-02T18:57:48Z",
"cidentificatore_in_openstreetmap":"3845631121",
"clongitudine":"7.5379415",
"clatitudine":"45.0055796999999"
}
,
{
"ccomune":"Perosa Argentina",
"cprovincia":"TORINO",
"cregione":"Piemonte",
"cnome":"",
"canno_inserimento":"2012",
"cdata_e_ora_inserimento":"2012-07-30T09:36:33Z",
"cidentificatore_in_openstreetmap":"444582881",
"clongitudine":"7.1906045",
"clatitudine":"44.958174"
}
,
{
"ccomune":"Pianezza",
"cprovincia":"TORINO",
"cregione":"Piemonte",
"cnome":"Jamaika",
"canno_inserimento":"2015",
"cdata_e_ora_inserimento":"2015-11-02T10:50:45Z",
"cidentificatore_in_openstreetmap":"3120624922",
"clongitudine":"7.5544301",
"clatitudine":"45.1070502999999"
}
,
{
"ccomune":"Pinerolo",
"cprovincia":"TORINO",
"cregione":"Piemonte",
"cnome":"Il Borgo Antico",
"canno_inserimento":"2013",
"cdata_e_ora_inserimento":"2013-06-06T19:28:34Z",
"cidentificatore_in_openstreetmap":"2334715265",
"clongitudine":"7.3317",
"clatitudine":"44.8864851"
}
,
{
"ccomune":"Pinerolo",
"cprovincia":"TORINO",
"cregione":"Piemonte",
"cnome":"Le Cantine Stevenson",
"canno_inserimento":"2015",
"cdata_e_ora_inserimento":"2015-02-14T19:28:10Z",
"cidentificatore_in_openstreetmap":"3350551721",
"clongitudine":"7.331825",
"clatitudine":"44.8842472999999"
}
,
{
"ccomune":"Pinerolo",
"cprovincia":"TORINO",
"cregione":"Piemonte",
"cnome":"Lennon",
"canno_inserimento":"2015",
"cdata_e_ora_inserimento":"2015-02-14T19:23:19Z",
"cidentificatore_in_openstreetmap":"3350544350",
"clongitudine":"7.3284066",
"clatitudine":"44.8853221"
}
,
{
"ccomune":"Pinerolo",
"cprovincia":"TORINO",
"cregione":"Piemonte",
"cnome":"Remembeer",
"canno_inserimento":"2015",
"cdata_e_ora_inserimento":"2015-02-14T19:30:43Z",
"cidentificatore_in_openstreetmap":"3350553894",
"clongitudine":"7.3293739",
"clatitudine":"44.8857615"
}
,
{
"ccomune":"Pinerolo",
"cprovincia":"TORINO",
"cregione":"Piemonte",
"cnome":"Sailor's Pub",
"canno_inserimento":"2015",
"cdata_e_ora_inserimento":"2015-02-14T21:40:08Z",
"cidentificatore_in_openstreetmap":"3350729819",
"clongitudine":"7.3358859",
"clatitudine":"44.8851573999999"
}
,
{
"ccomune":"Pinerolo",
"cprovincia":"TORINO",
"cregione":"Piemonte",
"cnome":"Vicolo Corto",
"canno_inserimento":"2015",
"cdata_e_ora_inserimento":"2015-02-15T17:58:40Z",
"cidentificatore_in_openstreetmap":"3352544288",
"clongitudine":"7.3274646",
"clatitudine":"44.8853754"
}
,
{
"ccomune":"Piverone",
"cprovincia":"TORINO",
"cregione":"Piemonte",
"cnome":"La Kascina RistoPub",
"canno_inserimento":"2014",
"cdata_e_ora_inserimento":"2014-05-07T19:35:10Z",
"cidentificatore_in_openstreetmap":"2842664256",
"clongitudine":"8.02225559999999",
"clatitudine":"45.4327836"
}
,
{
"ccomune":"Rivarolo Canavese",
"cprovincia":"TORINO",
"cregione":"Piemonte",
"cnome":"MaiALetto",
"canno_inserimento":"2012",
"cdata_e_ora_inserimento":"2012-11-11T21:52:46Z",
"cidentificatore_in_openstreetmap":"2009644715",
"clongitudine":"7.7189977",
"clatitudine":"45.3347150999999"
}
,
{
"ccomune":"Rivoli",
"cprovincia":"TORINO",
"cregione":"Piemonte",
"cnome":"Mister Gipson Pub",
"canno_inserimento":"2013",
"cdata_e_ora_inserimento":"2013-12-06T08:21:45Z",
"cidentificatore_in_openstreetmap":"1790184748",
"clongitudine":"7.5443756",
"clatitudine":"45.0744696"
}
,
{
"ccomune":"Rivoli",
"cprovincia":"TORINO",
"cregione":"Piemonte",
"cnome":"Pub Marconi",
"canno_inserimento":"2014",
"cdata_e_ora_inserimento":"2014-03-27T14:07:42Z",
"cidentificatore_in_openstreetmap":"2747514307",
"clongitudine":"7.5113073",
"clatitudine":"45.06779"
}
,
{
"ccomune":"Rivoli",
"cprovincia":"TORINO",
"cregione":"Piemonte",
"cnome":"Saint George Music Pub",
"canno_inserimento":"2014",
"cdata_e_ora_inserimento":"2014-09-25T21:25:02Z",
"cidentificatore_in_openstreetmap":"1790180324",
"clongitudine":"7.5466882",
"clatitudine":"45.0712959999999"
}
,
{
"ccomune":"Rosta",
"cprovincia":"TORINO",
"cregione":"Piemonte",
"cnome":"La Brigata del Birraio",
"canno_inserimento":"2014",
"cdata_e_ora_inserimento":"2014-06-20T13:23:58Z",
"cidentificatore_in_openstreetmap":"2924694941",
"clongitudine":"7.4708606",
"clatitudine":"45.0842602999999"
}
,
{
"ccomune":"San Secondo di Pinerolo",
"cprovincia":"TORINO",
"cregione":"Piemonte",
"cnome":"Ristopub al Centodue",
"canno_inserimento":"2013",
"cdata_e_ora_inserimento":"2013-03-24T20:44:45Z",
"cidentificatore_in_openstreetmap":"2219493923",
"clongitudine":"7.2989409",
"clatitudine":"44.8655722"
}
,
{
"ccomune":"Sauze d'Oulx",
"cprovincia":"TORINO",
"cregione":"Piemonte",
"cnome":"",
"canno_inserimento":"2013",
"cdata_e_ora_inserimento":"2013-06-15T09:09:51Z",
"cidentificatore_in_openstreetmap":"2345285715",
"clongitudine":"6.8583078",
"clatitudine":"45.0271649999999"
}
,
{
"ccomune":"Susa",
"cprovincia":"TORINO",
"cregione":"Piemonte",
"cnome":"Panacea",
"canno_inserimento":"2014",
"cdata_e_ora_inserimento":"2014-03-20T10:49:57Z",
"cidentificatore_in_openstreetmap":"2728496112",
"clongitudine":"7.0467064",
"clatitudine":"45.1353821"
}
,
{
"ccomune":"Torino",
"cprovincia":"TORINO",
"cregione":"Piemonte",
"cnome":"",
"canno_inserimento":"2011",
"cdata_e_ora_inserimento":"2011-04-14T16:47:00Z",
"cidentificatore_in_openstreetmap":"1244536709",
"clongitudine":"7.6719631",
"clatitudine":"45.0450226"
}
,
{
"ccomune":"Torino",
"cprovincia":"TORINO",
"cregione":"Piemonte",
"cnome":"",
"canno_inserimento":"2014",
"cdata_e_ora_inserimento":"2014-06-04T16:47:24Z",
"cidentificatore_in_openstreetmap":"2899384621",
"clongitudine":"7.7136849",
"clatitudine":"45.0904371999999"
}
,
{
"ccomune":"Torino",
"cprovincia":"TORINO",
"cregione":"Piemonte",
"cnome":"",
"canno_inserimento":"2015",
"cdata_e_ora_inserimento":"2015-04-15T17:17:22Z",
"cidentificatore_in_openstreetmap":"3457858574",
"clongitudine":"7.6761013",
"clatitudine":"45.0431571"
}
,
{
"ccomune":"Torino",
"cprovincia":"TORINO",
"cregione":"Piemonte",
"cnome":"Ambharabar",
"canno_inserimento":"2015",
"cdata_e_ora_inserimento":"2015-12-12T10:49:45Z",
"cidentificatore_in_openstreetmap":"3888902054",
"clongitudine":"7.6835006",
"clatitudine":"45.0789516999999"
}
,
{
"ccomune":"Torino",
"cprovincia":"TORINO",
"cregione":"Piemonte",
"cnome":"Beppe's Pub",
"canno_inserimento":"2011",
"cdata_e_ora_inserimento":"2011-11-02T13:23:49Z",
"cidentificatore_in_openstreetmap":"1244536754",
"clongitudine":"7.6747097",
"clatitudine":"45.0458260999999"
}
,
{
"ccomune":"Torino",
"cprovincia":"TORINO",
"cregione":"Piemonte",
"cnome":"Biberon",
"canno_inserimento":"2013",
"cdata_e_ora_inserimento":"2013-06-01T07:17:45Z",
"cidentificatore_in_openstreetmap":"1334596052",
"clongitudine":"7.6806877",
"clatitudine":"45.0584478"
}
,
{
"ccomune":"Torino",
"cprovincia":"TORINO",
"cregione":"Piemonte",
"cnome":"Big Mama",
"canno_inserimento":"2011",
"cdata_e_ora_inserimento":"2011-10-18T12:38:33Z",
"cidentificatore_in_openstreetmap":"320909614",
"clongitudine":"7.6981084",
"clatitudine":"45.0617036"
}
,
{
"ccomune":"Torino",
"cprovincia":"TORINO",
"cregione":"Piemonte",
"cnome":"Birreria Don Giovanni",
"canno_inserimento":"2014",
"cdata_e_ora_inserimento":"2014-10-24T19:12:55Z",
"cidentificatore_in_openstreetmap":"3147953790",
"clongitudine":"7.6460188",
"clatitudine":"45.0453959"
}
,
{
"ccomune":"Torino",
"cprovincia":"TORINO",
"cregione":"Piemonte",
"cnome":"Birreria Petrarca",
"canno_inserimento":"2015",
"cdata_e_ora_inserimento":"2015-01-10T08:44:05Z",
"cidentificatore_in_openstreetmap":"3279911659",
"clongitudine":"7.6757122",
"clatitudine":"45.049664"
}
,
{
"ccomune":"Torino",
"cprovincia":"TORINO",
"cregione":"Piemonte",
"cnome":"Birrificio La Piazza",
"canno_inserimento":"2012",
"cdata_e_ora_inserimento":"2012-05-03T12:37:56Z",
"cidentificatore_in_openstreetmap":"1233352398",
"clongitudine":"7.6595882",
"clatitudine":"45.0819197"
}
,
{
"ccomune":"Torino",
"cprovincia":"TORINO",
"cregione":"Piemonte",
"cnome":"Birrificio San Paolo",
"canno_inserimento":"2013",
"cdata_e_ora_inserimento":"2013-12-05T16:45:37Z",
"cidentificatore_in_openstreetmap":"1739196541",
"clongitudine":"7.649253",
"clatitudine":"45.0561951999999"
}
,
{
"ccomune":"Torino",
"cprovincia":"TORINO",
"cregione":"Piemonte",
"cnome":"Birrificio Torino",
"canno_inserimento":"2011",
"cdata_e_ora_inserimento":"2011-11-02T13:13:22Z",
"cidentificatore_in_openstreetmap":"1234453071",
"clongitudine":"7.6931751",
"clatitudine":"45.0781245"
}
,
{
"ccomune":"Torino",
"cprovincia":"TORINO",
"cregione":"Piemonte",
"cnome":"Buck's Sportcafè",
"canno_inserimento":"2013",
"cdata_e_ora_inserimento":"2013-04-26T19:31:48Z",
"cidentificatore_in_openstreetmap":"2282387737",
"clongitudine":"7.6774625",
"clatitudine":"45.0652041"
}
,
{
"ccomune":"Torino",
"cprovincia":"TORINO",
"cregione":"Piemonte",
"cnome":"Cafè Neruda",
"canno_inserimento":"2011",
"cdata_e_ora_inserimento":"2011-11-02T13:07:14Z",
"cidentificatore_in_openstreetmap":"1464809930",
"clongitudine":"7.6757951",
"clatitudine":"45.0915814999999"
}
,
{
"ccomune":"Torino",
"cprovincia":"TORINO",
"cregione":"Piemonte",
"cnome":"Caffrey's",
"canno_inserimento":"2015",
"cdata_e_ora_inserimento":"2015-03-20T13:00:37Z",
"cidentificatore_in_openstreetmap":"3408835716",
"clongitudine":"7.6720646",
"clatitudine":"45.0547528999999"
}
,
{
"ccomune":"Torino",
"cprovincia":"TORINO",
"cregione":"Piemonte",
"cnome":"Connery",
"canno_inserimento":"2015",
"cdata_e_ora_inserimento":"2015-12-02T18:57:48Z",
"cidentificatore_in_openstreetmap":"3849336672",
"clongitudine":"7.6386677",
"clatitudine":"45.0698316"
}
,
{
"ccomune":"Torino",
"cprovincia":"TORINO",
"cregione":"Piemonte",
"cnome":"Corvo Rosso",
"canno_inserimento":"2011",
"cdata_e_ora_inserimento":"2011-11-02T13:07:15Z",
"cidentificatore_in_openstreetmap":"1464819137",
"clongitudine":"7.6720083",
"clatitudine":"45.0959425"
}
,
{
"ccomune":"Torino",
"cprovincia":"TORINO",
"cregione":"Piemonte",
"cnome":"Damadama",
"canno_inserimento":"2011",
"cdata_e_ora_inserimento":"2011-06-21T15:41:23Z",
"cidentificatore_in_openstreetmap":"1333701145",
"clongitudine":"7.6829733",
"clatitudine":"45.0586954999999"
}
,
{
"ccomune":"Torino",
"cprovincia":"TORINO",
"cregione":"Piemonte",
"cnome":"DDR",
"canno_inserimento":"2014",
"cdata_e_ora_inserimento":"2014-12-07T21:38:38Z",
"cidentificatore_in_openstreetmap":"3224067524",
"clongitudine":"7.6801488",
"clatitudine":"45.059531"
}
,
{
"ccomune":"Torino",
"cprovincia":"TORINO",
"cregione":"Piemonte",
"cnome":"Diwan cafe",
"canno_inserimento":"2012",
"cdata_e_ora_inserimento":"2012-10-18T12:03:13Z",
"cidentificatore_in_openstreetmap":"1334596051",
"clongitudine":"7.680752",
"clatitudine":"45.0578718"
}
,
{
"ccomune":"Torino",
"cprovincia":"TORINO",
"cregione":"Piemonte",
"cnome":"Dorian Gray",
"canno_inserimento":"2015",
"cdata_e_ora_inserimento":"2015-02-02T18:20:46Z",
"cidentificatore_in_openstreetmap":"3327302529",
"clongitudine":"7.6578614",
"clatitudine":"45.0401712999999"
}
,
{
"ccomune":"Torino",
"cprovincia":"TORINO",
"cregione":"Piemonte",
"cnome":"Enoteca con Cucina\"\"Tirolin\"\"",
"canno_inserimento":"2012",
"cdata_e_ora_inserimento":"2012-01-24T14:30:04Z",
"cidentificatore_in_openstreetmap":"1603586163",
"clongitudine":"7.7139927",
"clatitudine":"45.0651741"
}
,
{
"ccomune":"Torino",
"cprovincia":"TORINO",
"cregione":"Piemonte",
"cnome":"Fluido",
"canno_inserimento":"2011",
"cdata_e_ora_inserimento":"2011-11-02T13:13:24Z",
"cidentificatore_in_openstreetmap":"1328570155",
"clongitudine":"7.6907739",
"clatitudine":"45.0575649"
}
,
{
"ccomune":"Torino",
"cprovincia":"TORINO",
"cregione":"Piemonte",
"cnome":"John Lennon's Pub",
"canno_inserimento":"2015",
"cdata_e_ora_inserimento":"2015-04-28T12:39:56Z",
"cidentificatore_in_openstreetmap":"3484016351",
"clongitudine":"7.640027",
"clatitudine":"45.0311162"
}
,
{
"ccomune":"Torino",
"cprovincia":"TORINO",
"cregione":"Piemonte",
"cnome":"Keller Bier",
"canno_inserimento":"2015",
"cdata_e_ora_inserimento":"2015-06-02T18:39:22Z",
"cidentificatore_in_openstreetmap":"1225872846",
"clongitudine":"7.6314209",
"clatitudine":"45.0409399999999"
}
,
{
"ccomune":"Torino",
"cprovincia":"TORINO",
"cregione":"Piemonte",
"cnome":"La casa del demone",
"canno_inserimento":"2015",
"cdata_e_ora_inserimento":"2015-10-02T16:56:46Z",
"cidentificatore_in_openstreetmap":"3766235167",
"clongitudine":"7.6817284",
"clatitudine":"45.0742464"
}
,
{
"ccomune":"Torino",
"cprovincia":"TORINO",
"cregione":"Piemonte",
"cnome":"La Divina Commedia",
"canno_inserimento":"2015",
"cdata_e_ora_inserimento":"2015-06-08T21:09:36Z",
"cidentificatore_in_openstreetmap":"1391284781",
"clongitudine":"7.6628965",
"clatitudine":"45.0809118999999"
}
,
{
"ccomune":"Torino",
"cprovincia":"TORINO",
"cregione":"Piemonte",
"cnome":"Lo Sbarco",
"canno_inserimento":"2013",
"cdata_e_ora_inserimento":"2013-06-01T07:17:35Z",
"cidentificatore_in_openstreetmap":"1199240647",
"clongitudine":"7.6803822",
"clatitudine":"45.0585573999999"
}
,
{
"ccomune":"Torino",
"cprovincia":"TORINO",
"cregione":"Piemonte",
"cnome":"Macgillycuddy?s",
"canno_inserimento":"2014",
"cdata_e_ora_inserimento":"2014-07-24T12:20:28Z",
"cidentificatore_in_openstreetmap":"429363792",
"clongitudine":"7.6757992",
"clatitudine":"45.0741322"
}
,
{
"ccomune":"Torino",
"cprovincia":"TORINO",
"cregione":"Piemonte",
"cnome":"Manhattan Pub",
"canno_inserimento":"2013",
"cdata_e_ora_inserimento":"2013-07-30T16:04:08Z",
"cidentificatore_in_openstreetmap":"1328570739",
"clongitudine":"7.6747424",
"clatitudine":"45.0927897999999"
}
,
{
"ccomune":"Torino",
"cprovincia":"TORINO",
"cregione":"Piemonte",
"cnome":"New Castle Pub",
"canno_inserimento":"2015",
"cdata_e_ora_inserimento":"2015-04-27T21:00:11Z",
"cidentificatore_in_openstreetmap":"3422349566",
"clongitudine":"7.6671694",
"clatitudine":"45.0773859"
}
,
{
"ccomune":"Torino",
"cprovincia":"TORINO",
"cregione":"Piemonte",
"cnome":"Open Baladin",
"canno_inserimento":"2015",
"cdata_e_ora_inserimento":"2015-02-21T15:14:43Z",
"cidentificatore_in_openstreetmap":"3242417745",
"clongitudine":"7.6871778",
"clatitudine":"45.0645705"
}
,
{
"ccomune":"Torino",
"cprovincia":"TORINO",
"cregione":"Piemonte",
"cnome":"Piper Pub",
"canno_inserimento":"2015",
"cdata_e_ora_inserimento":"2015-10-02T16:56:46Z",
"cidentificatore_in_openstreetmap":"1361537068",
"clongitudine":"7.6765539",
"clatitudine":"45.0932346999999"
}
,
{
"ccomune":"Torino",
"cprovincia":"TORINO",
"cregione":"Piemonte",
"cnome":"Pout Pourrì Vintage Cafè",
"canno_inserimento":"2015",
"cdata_e_ora_inserimento":"2015-06-05T15:32:25Z",
"cidentificatore_in_openstreetmap":"3574898270",
"clongitudine":"7.6325296",
"clatitudine":"45.0335102"
}
,
{
"ccomune":"Torino",
"cprovincia":"TORINO",
"cregione":"Piemonte",
"cnome":"Pub James Joyce",
"canno_inserimento":"2011",
"cdata_e_ora_inserimento":"2011-09-28T11:49:38Z",
"cidentificatore_in_openstreetmap":"439176448",
"clongitudine":"7.6721549",
"clatitudine":"45.0807537"
}
,
{
"ccomune":"Torino",
"cprovincia":"TORINO",
"cregione":"Piemonte",
"cnome":"Pub Sherlock Holmes",
"canno_inserimento":"2011",
"cdata_e_ora_inserimento":"2011-11-02T13:07:19Z",
"cidentificatore_in_openstreetmap":"1446159750",
"clongitudine":"7.638969",
"clatitudine":"45.0725114999999"
}
,
{
"ccomune":"Torino",
"cprovincia":"TORINO",
"cregione":"Piemonte",
"cnome":"Santa Giulia",
"canno_inserimento":"2012",
"cdata_e_ora_inserimento":"2012-01-07T16:24:43Z",
"cidentificatore_in_openstreetmap":"1581110708",
"clongitudine":"7.7002155",
"clatitudine":"45.0703279"
}
,
{
"ccomune":"Torino",
"cprovincia":"TORINO",
"cregione":"Piemonte",
"cnome":"Shakespeare Pub",
"canno_inserimento":"2014",
"cdata_e_ora_inserimento":"2014-09-27T08:41:43Z",
"cidentificatore_in_openstreetmap":"3098299567",
"clongitudine":"7.688155",
"clatitudine":"45.0691299"
}
,
{
"ccomune":"Torino",
"cprovincia":"TORINO",
"cregione":"Piemonte",
"cnome":"Sir Francis Drake",
"canno_inserimento":"2014",
"cdata_e_ora_inserimento":"2014-04-22T21:11:34Z",
"cidentificatore_in_openstreetmap":"2810028759",
"clongitudine":"7.642272",
"clatitudine":"45.0645692"
}
,
{
"ccomune":"Torino",
"cprovincia":"TORINO",
"cregione":"Piemonte",
"cnome":"St. Martin",
"canno_inserimento":"2013",
"cdata_e_ora_inserimento":"2013-09-02T11:53:29Z",
"cidentificatore_in_openstreetmap":"1390037905",
"clongitudine":"7.6693633",
"clatitudine":"45.0760329"
}
,
{
"ccomune":"Torino",
"cprovincia":"TORINO",
"cregione":"Piemonte",
"cnome":"The Isle of Skye",
"canno_inserimento":"2011",
"cdata_e_ora_inserimento":"2011-11-02T13:13:29Z",
"cidentificatore_in_openstreetmap":"1390035394",
"clongitudine":"7.6654675",
"clatitudine":"45.072921"
}
,
{
"ccomune":"Torre Pellice",
"cprovincia":"TORINO",
"cregione":"Piemonte",
"cnome":"Britannia Pub",
"canno_inserimento":"2012",
"cdata_e_ora_inserimento":"2012-11-25T14:29:51Z",
"cidentificatore_in_openstreetmap":"2031986222",
"clongitudine":"7.2251296",
"clatitudine":"44.8201684"
}
,
{
"ccomune":"Torre Pellice",
"cprovincia":"TORINO",
"cregione":"Piemonte",
"cnome":"Tower Inn",
"canno_inserimento":"2012",
"cdata_e_ora_inserimento":"2012-08-27T10:18:23Z",
"cidentificatore_in_openstreetmap":"584328807",
"clongitudine":"7.2262628",
"clatitudine":"44.8209906"
}
,
{
"ccomune":"Verrua Savoia",
"cprovincia":"TORINO",
"cregione":"Piemonte",
"cnome":"villa bianco",
"canno_inserimento":"2013",
"cdata_e_ora_inserimento":"2013-01-09T20:26:04Z",
"cidentificatore_in_openstreetmap":"2089218724",
"clongitudine":"8.109557",
"clatitudine":"45.1659154999999"
}
,
{
"ccomune":"Alagna Valsesia",
"cprovincia":"VERCELLI",
"cregione":"Piemonte",
"cnome":"Freerider",
"canno_inserimento":"2015",
"cdata_e_ora_inserimento":"2015-12-21T19:18:11Z",
"cidentificatore_in_openstreetmap":"1708113962",
"clongitudine":"7.9377144",
"clatitudine":"45.8507137"
}
,
{
"ccomune":"Gattinara",
"cprovincia":"VERCELLI",
"cregione":"Piemonte",
"cnome":"Mulligans Irish Pub & Restaurant",
"canno_inserimento":"2013",
"cdata_e_ora_inserimento":"2013-08-17T10:40:43Z",
"cidentificatore_in_openstreetmap":"1984670786",
"clongitudine":"8.3586539",
"clatitudine":"45.6135734"
}
,
{
"ccomune":"Riva Valdobbia",
"cprovincia":"VERCELLI",
"cregione":"Piemonte",
"cnome":"Bar da Mario la Tavernetta",
"canno_inserimento":"2013",
"cdata_e_ora_inserimento":"2013-03-17T03:03:42Z",
"cidentificatore_in_openstreetmap":"2134869962",
"clongitudine":"7.9539347",
"clatitudine":"45.8328944"
}
,
{
"ccomune":"Sali Vercellese",
"cprovincia":"VERCELLI",
"cregione":"Piemonte",
"cnome":"Essen e Trinken",
"canno_inserimento":"2013",
"cdata_e_ora_inserimento":"2013-07-12T13:55:53Z",
"cidentificatore_in_openstreetmap":"2382416179",
"clongitudine":"8.3281588",
"clatitudine":"45.3101849"
}
,
{
"ccomune":"San Germano Vercellese",
"cprovincia":"VERCELLI",
"cregione":"Piemonte",
"cnome":"Albergo delle Miniere",
"canno_inserimento":"2012",
"cdata_e_ora_inserimento":"2012-07-28T14:54:03Z",
"cidentificatore_in_openstreetmap":"1841428092",
"clongitudine":"8.2466697",
"clatitudine":"45.3499801999999"
}
,
{
"ccomune":"Serravalle Sesia",
"cprovincia":"VERCELLI",
"cregione":"Piemonte",
"cnome":"Bar OK",
"canno_inserimento":"2013",
"cdata_e_ora_inserimento":"2013-12-28T21:31:28Z",
"cidentificatore_in_openstreetmap":"290193263",
"clongitudine":"8.320568",
"clatitudine":"45.6759446"
}
,
{
"ccomune":"Vercelli",
"cprovincia":"VERCELLI",
"cregione":"Piemonte",
"cnome":"Admiral Club",
"canno_inserimento":"2013",
"cdata_e_ora_inserimento":"2013-10-28T15:22:22Z",
"cidentificatore_in_openstreetmap":"2511593428",
"clongitudine":"8.4277183",
"clatitudine":"45.3246353999999"
}
,
{
"ccomune":"Vercelli",
"cprovincia":"VERCELLI",
"cregione":"Piemonte",
"cnome":"Bar Bon",
"canno_inserimento":"2015",
"cdata_e_ora_inserimento":"2015-06-26T13:14:32Z",
"cidentificatore_in_openstreetmap":"1842474843",
"clongitudine":"8.40566259999999",
"clatitudine":"45.3299035"
}
,
{
"ccomune":"Vercelli",
"cprovincia":"VERCELLI",
"cregione":"Piemonte",
"cnome":"Birrhouse",
"canno_inserimento":"2012",
"cdata_e_ora_inserimento":"2012-07-26T17:31:50Z",
"cidentificatore_in_openstreetmap":"1650264742",
"clongitudine":"8.4314075",
"clatitudine":"45.3329923"
}
,
{
"ccomune":"Vercelli",
"cprovincia":"VERCELLI",
"cregione":"Piemonte",
"cnome":"Birrificio Sant'Andrea",
"canno_inserimento":"2014",
"cdata_e_ora_inserimento":"2014-12-24T10:18:44Z",
"cidentificatore_in_openstreetmap":"3249954710",
"clongitudine":"8.3974293",
"clatitudine":"45.3253344999999"
}
,
{
"ccomune":"Vercelli",
"cprovincia":"VERCELLI",
"cregione":"Piemonte",
"cnome":"Blue Ribbon Pub",
"canno_inserimento":"2012",
"cdata_e_ora_inserimento":"2012-03-08T18:27:14Z",
"cidentificatore_in_openstreetmap":"1666203611",
"clongitudine":"8.450098",
"clatitudine":"45.3358952999999"
}
,
{
"ccomune":"Vercelli",
"cprovincia":"VERCELLI",
"cregione":"Piemonte",
"cnome":"Charlie Brown",
"canno_inserimento":"2015",
"cdata_e_ora_inserimento":"2015-03-16T15:15:45Z",
"cidentificatore_in_openstreetmap":"1336762855",
"clongitudine":"8.39434359999999",
"clatitudine":"45.3221166"
}
,
{
"ccomune":"Vercelli",
"cprovincia":"VERCELLI",
"cregione":"Piemonte",
"cnome":"Circolo A.R.C.I. Porta Torino",
"canno_inserimento":"2013",
"cdata_e_ora_inserimento":"2013-09-12T09:38:40Z",
"cidentificatore_in_openstreetmap":"1838979103",
"clongitudine":"8.4080388",
"clatitudine":"45.3230969"
}
,
{
"ccomune":"Vercelli",
"cprovincia":"VERCELLI",
"cregione":"Piemonte",
"cnome":"Il Gatto Nero",
"canno_inserimento":"2011",
"cdata_e_ora_inserimento":"2011-10-18T14:37:45Z",
"cidentificatore_in_openstreetmap":"1472092580",
"clongitudine":"8.42410259999999",
"clatitudine":"45.3262232"
}
,
{
"ccomune":"Vercelli",
"cprovincia":"VERCELLI",
"cregione":"Piemonte",
"cnome":"Victoria Beer House",
"canno_inserimento":"2012",
"cdata_e_ora_inserimento":"2012-03-21T12:18:39Z",
"cidentificatore_in_openstreetmap":"1593504451",
"clongitudine":"8.4118663",
"clatitudine":"45.3287345"
}
,
{
"ccomune":"Galliate",
"cprovincia":"NOVARA",
"cregione":"Piemonte",
"cnome":"",
"canno_inserimento":"2014",
"cdata_e_ora_inserimento":"2014-12-24T09:03:29Z",
"cidentificatore_in_openstreetmap":"2804471741",
"clongitudine":"8.6951759",
"clatitudine":"45.4781334999999"
}
,
{
"ccomune":"Galliate",
"cprovincia":"NOVARA",
"cregione":"Piemonte",
"cnome":"Birreria Wanted",
"canno_inserimento":"2013",
"cdata_e_ora_inserimento":"2013-07-30T08:33:40Z",
"cidentificatore_in_openstreetmap":"2401244772",
"clongitudine":"8.7209468",
"clatitudine":"45.5067752"
}
,
{
"ccomune":"Galliate",
"cprovincia":"NOVARA",
"cregione":"Piemonte",
"cnome":"New Soliva",
"canno_inserimento":"2014",
"cdata_e_ora_inserimento":"2014-06-02T13:10:32Z",
"cidentificatore_in_openstreetmap":"305629186",
"clongitudine":"8.70723699999999",
"clatitudine":"45.4979489999999"
}
,
{
"ccomune":"Galliate",
"cprovincia":"NOVARA",
"cregione":"Piemonte",
"cnome":"The Penny Black Irish Pub",
"canno_inserimento":"2014",
"cdata_e_ora_inserimento":"2014-02-26T10:27:18Z",
"cidentificatore_in_openstreetmap":"2628390598",
"clongitudine":"8.71326769999999",
"clatitudine":"45.4778596"
}
,
{
"ccomune":"Ghemme",
"cprovincia":"NOVARA",
"cregione":"Piemonte",
"cnome":"Rendez Vous Pub",
"canno_inserimento":"2011",
"cdata_e_ora_inserimento":"2011-09-26T15:07:53Z",
"cidentificatore_in_openstreetmap":"1437412301",
"clongitudine":"8.4043167",
"clatitudine":"45.5657090999999"
}
,
{
"ccomune":"Novara",
"cprovincia":"NOVARA",
"cregione":"Piemonte",
"cnome":"Birreria Marconi",
"canno_inserimento":"2016",
"cdata_e_ora_inserimento":"2016-01-20T07:39:42Z",
"cidentificatore_in_openstreetmap":"3956234700",
"clongitudine":"8.5900123",
"clatitudine":"45.4478988999999"
}
,
{
"ccomune":"Novara",
"cprovincia":"NOVARA",
"cregione":"Piemonte",
"cnome":"Clover Irish Pub",
"canno_inserimento":"2014",
"cdata_e_ora_inserimento":"2014-03-16T18:52:37Z",
"cidentificatore_in_openstreetmap":"2721762878",
"clongitudine":"8.6116642",
"clatitudine":"45.4438561999999"
}
,
{
"ccomune":"Novara",
"cprovincia":"NOVARA",
"cregione":"Piemonte",
"cnome":"Il Barone Birra",
"canno_inserimento":"2015",
"cdata_e_ora_inserimento":"2015-01-07T20:11:25Z",
"cidentificatore_in_openstreetmap":"2795876334",
"clongitudine":"8.6100293",
"clatitudine":"45.4462827999999"
}
,
{
"ccomune":"Novara",
"cprovincia":"NOVARA",
"cregione":"Piemonte",
"cnome":"Lord Byron",
"canno_inserimento":"2014",
"cdata_e_ora_inserimento":"2014-04-07T12:04:48Z",
"cidentificatore_in_openstreetmap":"843996549",
"clongitudine":"8.6443341",
"clatitudine":"45.423388"
}
,
{
"ccomune":"Novara",
"cprovincia":"NOVARA",
"cregione":"Piemonte",
"cnome":"Oliver St. John",
"canno_inserimento":"2015",
"cdata_e_ora_inserimento":"2015-07-27T16:11:49Z",
"cidentificatore_in_openstreetmap":"2708759314",
"clongitudine":"8.60965719999999",
"clatitudine":"45.4360272999999"
}
,
{
"ccomune":"Novara",
"cprovincia":"NOVARA",
"cregione":"Piemonte",
"cnome":"Public House",
"canno_inserimento":"2014",
"cdata_e_ora_inserimento":"2014-06-14T15:06:00Z",
"cidentificatore_in_openstreetmap":"2916062361",
"clongitudine":"8.6268834",
"clatitudine":"45.4316491"
}
,
{
"ccomune":"Novara",
"cprovincia":"NOVARA",
"cregione":"Piemonte",
"cnome":"Zefiro Cafè",
"canno_inserimento":"2014",
"cdata_e_ora_inserimento":"2014-05-27T09:17:12Z",
"cidentificatore_in_openstreetmap":"1897447966",
"clongitudine":"8.62060619999999",
"clatitudine":"45.4491347"
}
,
{
"ccomune":"Romentino",
"cprovincia":"NOVARA",
"cregione":"Piemonte",
"cnome":"Mezzo Litro",
"canno_inserimento":"2012",
"cdata_e_ora_inserimento":"2012-01-26T18:32:03Z",
"cidentificatore_in_openstreetmap":"1431552786",
"clongitudine":"8.720227",
"clatitudine":"45.4619143999999"
}
,
{
"ccomune":"San Pietro Mosezzo",
"cprovincia":"NOVARA",
"cregione":"Piemonte",
"cnome":"Irish Pub - Guinness Time",
"canno_inserimento":"2015",
"cdata_e_ora_inserimento":"2015-09-05T13:50:53Z",
"cidentificatore_in_openstreetmap":"3730566297",
"clongitudine":"8.5710076",
"clatitudine":"45.4918941"
}
,
{
"ccomune":"Trecate",
"cprovincia":"NOVARA",
"cregione":"Piemonte",
"cnome":"",
"canno_inserimento":"2010",
"cdata_e_ora_inserimento":"2010-07-16T15:04:54Z",
"cidentificatore_in_openstreetmap":"820847716",
"clongitudine":"8.7420198",
"clatitudine":"45.441451"
}
,
{
"ccomune":"Cervasca",
"cprovincia":"CUNEO",
"cregione":"Piemonte",
"cnome":"Bujo Pub",
"canno_inserimento":"2013",
"cdata_e_ora_inserimento":"2013-09-15T21:24:25Z",
"cidentificatore_in_openstreetmap":"2459897072",
"clongitudine":"7.4677722",
"clatitudine":"44.3832886"
}
,
{
"ccomune":"Chiusa di Pesio",
"cprovincia":"CUNEO",
"cregione":"Piemonte",
"cnome":"La casermetta a pres",
"canno_inserimento":"2008",
"cdata_e_ora_inserimento":"2008-02-09T13:36:20Z",
"cidentificatore_in_openstreetmap":"246790623",
"clongitudine":"7.6747238",
"clatitudine":"44.3271827"
}
,
{
"ccomune":"Chiusa di Pesio",
"cprovincia":"CUNEO",
"cregione":"Piemonte",
"cnome":"Sans Sucis",
"canno_inserimento":"2008",
"cdata_e_ora_inserimento":"2008-02-09T18:41:53Z",
"cidentificatore_in_openstreetmap":"246828725",
"clongitudine":"7.6793046",
"clatitudine":"44.3208253999999"
}
,
{
"ccomune":"Demonte",
"cprovincia":"CUNEO",
"cregione":"Piemonte",
"cnome":"Route 21",
"canno_inserimento":"2011",
"cdata_e_ora_inserimento":"2011-08-05T13:22:59Z",
"cidentificatore_in_openstreetmap":"1387487259",
"clongitudine":"7.2984432",
"clatitudine":"44.3150888999999"
}
,
{
"ccomune":"Frabosa Sottana",
"cprovincia":"CUNEO",
"cregione":"Piemonte",
"cnome":"Donald Castle",
"canno_inserimento":"2013",
"cdata_e_ora_inserimento":"2013-09-17T02:23:34Z",
"cidentificatore_in_openstreetmap":"587792252",
"clongitudine":"7.7808086",
"clatitudine":"44.3348786"
}
,
{
"ccomune":"Limone Piemonte",
"cprovincia":"CUNEO",
"cregione":"Piemonte",
"cnome":"Birreria d'la Puntsa",
"canno_inserimento":"2011",
"cdata_e_ora_inserimento":"2011-01-11T13:46:24Z",
"cidentificatore_in_openstreetmap":"1098000800",
"clongitudine":"7.5759652",
"clatitudine":"44.200693"
}
,
{
"ccomune":"Peveragno",
"cprovincia":"CUNEO",
"cregione":"Piemonte",
"cnome":"Birreria Maccalè",
"canno_inserimento":"2012",
"cdata_e_ora_inserimento":"2012-01-05T11:32:17Z",
"cidentificatore_in_openstreetmap":"1447970499",
"clongitudine":"7.6178223",
"clatitudine":"44.3301953"
}
,
{
"ccomune":"Piozzo",
"cprovincia":"CUNEO",
"cregione":"Piemonte",
"cnome":"Birrificio Baladin",
"canno_inserimento":"2012",
"cdata_e_ora_inserimento":"2012-05-03T12:26:34Z",
"cidentificatore_in_openstreetmap":"1365074488",
"clongitudine":"7.8919974",
"clatitudine":"44.515433"
}
,
{
"ccomune":"Pontechianale",
"cprovincia":"CUNEO",
"cregione":"Piemonte",
"cnome":"La Buca di Bacco",
"canno_inserimento":"2012",
"cdata_e_ora_inserimento":"2012-08-19T10:25:10Z",
"cidentificatore_in_openstreetmap":"1872476403",
"clongitudine":"7.0291988",
"clatitudine":"44.6224546999999"
}
,
{
"ccomune":"Roburent",
"cprovincia":"CUNEO",
"cregione":"Piemonte",
"cnome":"",
"canno_inserimento":"2013",
"cdata_e_ora_inserimento":"2013-09-03T10:27:55Z",
"cidentificatore_in_openstreetmap":"2444165035",
"clongitudine":"7.873969",
"clatitudine":"44.2957752"
}
,
{
"ccomune":"Roccaforte Mondovi'",
"cprovincia":"CUNEO",
"cregione":"Piemonte",
"cnome":"Gambrinus",
"canno_inserimento":"2008",
"cdata_e_ora_inserimento":"2008-04-08T13:23:09Z",
"cidentificatore_in_openstreetmap":"256403268",
"clongitudine":"7.7193941",
"clatitudine":"44.3106888"
}
,
{
"ccomune":"Saluzzo",
"cprovincia":"CUNEO",
"cregione":"Piemonte",
"cnome":"La Drancia",
"canno_inserimento":"2012",
"cdata_e_ora_inserimento":"2012-03-16T18:13:43Z",
"cidentificatore_in_openstreetmap":"277917111",
"clongitudine":"7.4875902",
"clatitudine":"44.6430289999999"
}
,
{
"ccomune":"Villanova Mondovi'",
"cprovincia":"CUNEO",
"cregione":"Piemonte",
"cnome":"Bar Reale",
"canno_inserimento":"2011",
"cdata_e_ora_inserimento":"2011-11-25T13:21:50Z",
"cidentificatore_in_openstreetmap":"1516405991",
"clongitudine":"7.7638082",
"clatitudine":"44.3447131"
}
,
{
"ccomune":"Villanova Mondovi'",
"cprovincia":"CUNEO",
"cregione":"Piemonte",
"cnome":"Il Capriccio",
"canno_inserimento":"2008",
"cdata_e_ora_inserimento":"2008-03-07T23:30:24Z",
"cidentificatore_in_openstreetmap":"246806693",
"clongitudine":"7.7717688",
"clatitudine":"44.34852"
}
,
{
"ccomune":"Villanova Mondovi'",
"cprovincia":"CUNEO",
"cregione":"Piemonte",
"cnome":"Ritual Cafè",
"canno_inserimento":"2012",
"cdata_e_ora_inserimento":"2012-10-18T09:21:07Z",
"cidentificatore_in_openstreetmap":"1516405992",
"clongitudine":"7.7640718",
"clatitudine":"44.3439184"
}
,
{
"ccomune":"Asti",
"cprovincia":"ASTI",
"cregione":"Piemonte",
"cnome":"Black Storm",
"canno_inserimento":"2014",
"cdata_e_ora_inserimento":"2014-06-29T16:37:12Z",
"cidentificatore_in_openstreetmap":"2463045140",
"clongitudine":"8.187376",
"clatitudine":"44.9045115999999"
}
,
{
"ccomune":"Asti",
"cprovincia":"ASTI",
"cregione":"Piemonte",
"cnome":"Jack Madden",
"canno_inserimento":"2013",
"cdata_e_ora_inserimento":"2013-09-18T15:14:17Z",
"cidentificatore_in_openstreetmap":"1468282894",
"clongitudine":"8.2145213",
"clatitudine":"44.8978585999999"
}
,
{
"ccomune":"Asti",
"cprovincia":"ASTI",
"cregione":"Piemonte",
"cnome":"Jamaica",
"canno_inserimento":"2014",
"cdata_e_ora_inserimento":"2014-08-22T15:14:05Z",
"cidentificatore_in_openstreetmap":"2463025561",
"clongitudine":"8.23004549999999",
"clatitudine":"44.9066668"
}
,
{
"ccomune":"Asti",
"cprovincia":"ASTI",
"cregione":"Piemonte",
"cnome":"Regli Ristopub",
"canno_inserimento":"2014",
"cdata_e_ora_inserimento":"2014-08-22T15:13:53Z",
"cidentificatore_in_openstreetmap":"3034949236",
"clongitudine":"8.2248087",
"clatitudine":"44.9058647"
}
,
{
"ccomune":"Asti",
"cprovincia":"ASTI",
"cregione":"Piemonte",
"cnome":"Tavola Calda Deja Vù",
"canno_inserimento":"2011",
"cdata_e_ora_inserimento":"2011-10-17T08:22:28Z",
"cidentificatore_in_openstreetmap":"1470025790",
"clongitudine":"8.2084147",
"clatitudine":"44.9019697"
}
,
{
"ccomune":"Monale",
"cprovincia":"ASTI",
"cregione":"Piemonte",
"cnome":"Appaloosa",
"canno_inserimento":"2015",
"cdata_e_ora_inserimento":"2015-12-05T19:00:25Z",
"cidentificatore_in_openstreetmap":"535448262",
"clongitudine":"8.072433",
"clatitudine":"44.9354304"
}
,
{
"ccomune":"Alessandria",
"cprovincia":"ALESSANDRIA",
"cregione":"Piemonte",
"cnome":"Arteria",
"canno_inserimento":"2015",
"cdata_e_ora_inserimento":"2015-07-24T08:50:06Z",
"cidentificatore_in_openstreetmap":"3664199492",
"clongitudine":"8.6153416",
"clatitudine":"44.9152636"
}
,
{
"ccomune":"Alessandria",
"cprovincia":"ALESSANDRIA",
"cregione":"Piemonte",
"cnome":"Befed Brew Pub",
"canno_inserimento":"2015",
"cdata_e_ora_inserimento":"2015-06-30T10:14:29Z",
"cidentificatore_in_openstreetmap":"1863938525",
"clongitudine":"8.6129008",
"clatitudine":"44.9324951999999"
}
,
{
"ccomune":"Alessandria",
"cprovincia":"ALESSANDRIA",
"cregione":"Piemonte",
"cnome":"Birreria Gasthaus",
"canno_inserimento":"2015",
"cdata_e_ora_inserimento":"2015-09-12T07:53:40Z",
"cidentificatore_in_openstreetmap":"3589330506",
"clongitudine":"8.6176065",
"clatitudine":"44.9203625"
}
,
{
"ccomune":"Alessandria",
"cprovincia":"ALESSANDRIA",
"cregione":"Piemonte",
"cnome":"Birreria Il Borgo",
"canno_inserimento":"2015",
"cdata_e_ora_inserimento":"2015-08-04T08:51:22Z",
"cidentificatore_in_openstreetmap":"3401765432",
"clongitudine":"8.612928",
"clatitudine":"44.9180374"
}
,
{
"ccomune":"Alessandria",
"cprovincia":"ALESSANDRIA",
"cregione":"Piemonte",
"cnome":"Britannia",
"canno_inserimento":"2015",
"cdata_e_ora_inserimento":"2015-07-16T07:43:25Z",
"cidentificatore_in_openstreetmap":"3589330507",
"clongitudine":"8.6145938",
"clatitudine":"44.9204672999999"
}
,
{
"ccomune":"Alessandria",
"cprovincia":"ALESSANDRIA",
"cregione":"Piemonte",
"cnome":"Calypso pub",
"canno_inserimento":"2015",
"cdata_e_ora_inserimento":"2015-07-08T08:49:45Z",
"cidentificatore_in_openstreetmap":"3640431734",
"clongitudine":"8.5974731",
"clatitudine":"44.898598"
}
,
{
"ccomune":"Alessandria",
"cprovincia":"ALESSANDRIA",
"cregione":"Piemonte",
"cnome":"DiNoi3",
"canno_inserimento":"2015",
"cdata_e_ora_inserimento":"2015-07-24T08:50:07Z",
"cidentificatore_in_openstreetmap":"1317163941",
"clongitudine":"8.6168937",
"clatitudine":"44.9152355"
}
,
{
"ccomune":"Alessandria",
"cprovincia":"ALESSANDRIA",
"cregione":"Piemonte",
"cnome":"Fatto Bene Una Volta",
"canno_inserimento":"2013",
"cdata_e_ora_inserimento":"2013-08-27T09:15:34Z",
"cidentificatore_in_openstreetmap":"2215109539",
"clongitudine":"8.62405659999999",
"clatitudine":"44.9136857"
}
,
{
"ccomune":"Alessandria",
"cprovincia":"ALESSANDRIA",
"cregione":"Piemonte",
"cnome":"Hop Mangiare di Birra",
"canno_inserimento":"2015",
"cdata_e_ora_inserimento":"2015-08-06T07:41:50Z",
"cidentificatore_in_openstreetmap":"3401523047",
"clongitudine":"8.6102791",
"clatitudine":"44.9136681999999"
}
,
{
"ccomune":"Alessandria",
"cprovincia":"ALESSANDRIA",
"cregione":"Piemonte",
"cnome":"John's Pub",
"canno_inserimento":"2015",
"cdata_e_ora_inserimento":"2015-05-06T10:58:27Z",
"cidentificatore_in_openstreetmap":"3456136057",
"clongitudine":"8.6150385",
"clatitudine":"44.9082301999999"
}
,
{
"ccomune":"Alessandria",
"cprovincia":"ALESSANDRIA",
"cregione":"Piemonte",
"cnome":"L'Irish Pub",
"canno_inserimento":"2015",
"cdata_e_ora_inserimento":"2015-08-04T10:28:28Z",
"cidentificatore_in_openstreetmap":"1839035075",
"clongitudine":"8.6175677",
"clatitudine":"44.9149918999999"
}
,
{
"ccomune":"Alessandria",
"cprovincia":"ALESSANDRIA",
"cregione":"Piemonte",
"cnome":"Lo Stecco",
"canno_inserimento":"2015",
"cdata_e_ora_inserimento":"2015-09-12T07:53:43Z",
"cidentificatore_in_openstreetmap":"3587488472",
"clongitudine":"8.6280419",
"clatitudine":"44.9057114"
}
,
{
"ccomune":"Alessandria",
"cprovincia":"ALESSANDRIA",
"cregione":"Piemonte",
"cnome":"Mag Mell",
"canno_inserimento":"2014",
"cdata_e_ora_inserimento":"2014-08-31T13:51:30Z",
"cidentificatore_in_openstreetmap":"2710252087",
"clongitudine":"8.59867219999999",
"clatitudine":"44.8968770999999"
}
,
{
"ccomune":"Alessandria",
"cprovincia":"ALESSANDRIA",
"cregione":"Piemonte",
"cnome":"Meg Mell",
"canno_inserimento":"2015",
"cdata_e_ora_inserimento":"2015-07-08T08:49:47Z",
"cidentificatore_in_openstreetmap":"3640431755",
"clongitudine":"8.5986713",
"clatitudine":"44.8968787"
}
,
{
"ccomune":"Alessandria",
"cprovincia":"ALESSANDRIA",
"cregione":"Piemonte",
"cnome":"Tip Tap Gastropub",
"canno_inserimento":"2015",
"cdata_e_ora_inserimento":"2015-08-05T10:34:24Z",
"cidentificatore_in_openstreetmap":"3401765433",
"clongitudine":"8.6183304",
"clatitudine":"44.9122981"
}
,
{
"ccomune":"Alessandria",
"cprovincia":"ALESSANDRIA",
"cregione":"Piemonte",
"cnome":"XXL",
"canno_inserimento":"2015",
"cdata_e_ora_inserimento":"2015-06-30T10:41:20Z",
"cidentificatore_in_openstreetmap":"3626820621",
"clongitudine":"8.60176689999999",
"clatitudine":"44.8926142999999"
}
,
{
"ccomune":"Conzano",
"cprovincia":"ALESSANDRIA",
"cregione":"Piemonte",
"cnome":"Uva Blu",
"canno_inserimento":"2015",
"cdata_e_ora_inserimento":"2015-01-19T11:19:02Z",
"cidentificatore_in_openstreetmap":"3298293018",
"clongitudine":"8.4555937",
"clatitudine":"45.0204495999999"
}
,
{
"ccomune":"Conzano",
"cprovincia":"ALESSANDRIA",
"cregione":"Piemonte",
"cnome":"Vineria del Pozzo",
"canno_inserimento":"2015",
"cdata_e_ora_inserimento":"2015-01-21T09:52:16Z",
"cidentificatore_in_openstreetmap":"3298293019",
"clongitudine":"8.45533539999999",
"clatitudine":"45.0204112999999"
}
,
{
"ccomune":"Frassinello Monferrato",
"cprovincia":"ALESSANDRIA",
"cregione":"Piemonte",
"cnome":"Vecchia Rocka",
"canno_inserimento":"2016",
"cdata_e_ora_inserimento":"2016-01-19T09:23:35Z",
"cidentificatore_in_openstreetmap":"1593550726",
"clongitudine":"8.38649629999999",
"clatitudine":"45.0330494"
}
,
{
"ccomune":"Novi Ligure",
"cprovincia":"ALESSANDRIA",
"cregione":"Piemonte",
"cnome":"Al Flint",
"canno_inserimento":"2014",
"cdata_e_ora_inserimento":"2014-08-31T13:51:25Z",
"cidentificatore_in_openstreetmap":"2616962501",
"clongitudine":"8.78832779999999",
"clatitudine":"44.7596356999999"
}
,
{
"ccomune":"Novi Ligure",
"cprovincia":"ALESSANDRIA",
"cregione":"Piemonte",
"cnome":"La Taverna del K d'O",
"canno_inserimento":"2011",
"cdata_e_ora_inserimento":"2011-12-25T20:13:41Z",
"cidentificatore_in_openstreetmap":"1561814856",
"clongitudine":"8.7905696",
"clatitudine":"44.7599851"
}
,
{
"ccomune":"Ovada",
"cprovincia":"ALESSANDRIA",
"cregione":"Piemonte",
"cnome":"The Moon Pub",
"canno_inserimento":"2014",
"cdata_e_ora_inserimento":"2014-09-23T02:07:40Z",
"cidentificatore_in_openstreetmap":"1585536823",
"clongitudine":"8.6479668",
"clatitudine":"44.6419725"
}
,
{
"ccomune":"Pontecurone",
"cprovincia":"ALESSANDRIA",
"cregione":"Piemonte",
"cnome":"",
"canno_inserimento":"2013",
"cdata_e_ora_inserimento":"2013-11-30T23:19:07Z",
"cidentificatore_in_openstreetmap":"2559157406",
"clongitudine":"8.92952099999999",
"clatitudine":"44.9573364999999"
}
,
{
"ccomune":"Vignale Monferrato",
"cprovincia":"ALESSANDRIA",
"cregione":"Piemonte",
"cnome":"Osteria della Luna",
"canno_inserimento":"2012",
"cdata_e_ora_inserimento":"2012-12-18T17:33:23Z",
"cidentificatore_in_openstreetmap":"295399149",
"clongitudine":"8.3945927",
"clatitudine":"45.0103586999999"
}
,
{
"ccomune":"Ayas",
"cprovincia":"AOSTA",
"cregione":"Valle d'Aosta",
"cnome":"Birreria Pachamama",
"canno_inserimento":"2012",
"cdata_e_ora_inserimento":"2012-12-27T12:45:35Z",
"cidentificatore_in_openstreetmap":"372793051",
"clongitudine":"7.7290416",
"clatitudine":"45.835287"
}
,
{
"ccomune":"Ayas",
"cprovincia":"AOSTA",
"cregione":"Valle d'Aosta",
"cnome":"Cafe' du Bistrot",
"canno_inserimento":"2015",
"cdata_e_ora_inserimento":"2015-01-01T11:30:36Z",
"cidentificatore_in_openstreetmap":"372793092",
"clongitudine":"7.7300675",
"clatitudine":"45.8363939999999"
}
,
{
"ccomune":"Ayas",
"cprovincia":"AOSTA",
"cregione":"Valle d'Aosta",
"cnome":"Dolce e Salato",
"canno_inserimento":"2009",
"cdata_e_ora_inserimento":"2009-04-11T18:57:45Z",
"cidentificatore_in_openstreetmap":"372793025",
"clongitudine":"7.730338",
"clatitudine":"45.836196"
}
,
{
"ccomune":"Ayas",
"cprovincia":"AOSTA",
"cregione":"Valle d'Aosta",
"cnome":"Golosone",
"canno_inserimento":"2012",
"cdata_e_ora_inserimento":"2012-07-10T15:21:10Z",
"cidentificatore_in_openstreetmap":"372793717",
"clongitudine":"7.7253809",
"clatitudine":"45.8330503999999"
}
,
{
"ccomune":"Cogne",
"cprovincia":"AOSTA",
"cregione":"Valle d'Aosta",
"cnome":"",
"canno_inserimento":"2015",
"cdata_e_ora_inserimento":"2015-07-21T17:03:47Z",
"cidentificatore_in_openstreetmap":"3660590923",
"clongitudine":"7.357808",
"clatitudine":"45.6171507"
}
,
{
"ccomune":"Cogne",
"cprovincia":"AOSTA",
"cregione":"Valle d'Aosta",
"cnome":"Hotel Grauson",
"canno_inserimento":"2015",
"cdata_e_ora_inserimento":"2015-07-21T17:03:47Z",
"cidentificatore_in_openstreetmap":"3660596018",
"clongitudine":"7.3582103",
"clatitudine":"45.6172632999999"
}
,
{
"ccomune":"Gressoney-La-Trinite'",
"cprovincia":"AOSTA",
"cregione":"Valle d'Aosta",
"cnome":"Castore Lounge Bar & Restaurant",
"canno_inserimento":"2014",
"cdata_e_ora_inserimento":"2014-08-03T10:50:09Z",
"cidentificatore_in_openstreetmap":"376506096",
"clongitudine":"7.8228199",
"clatitudine":"45.8273632"
}
,
{
"ccomune":"Morgex",
"cprovincia":"AOSTA",
"cregione":"Valle d'Aosta",
"cnome":"Café Mont Blanc",
"canno_inserimento":"2015",
"cdata_e_ora_inserimento":"2015-07-25T16:11:16Z",
"cidentificatore_in_openstreetmap":"3664766209",
"clongitudine":"7.0352801",
"clatitudine":"45.7575089999999"
}
,
{
"ccomune":"Pont-Saint-Martin",
"cprovincia":"AOSTA",
"cregione":"Valle d'Aosta",
"cnome":"",
"canno_inserimento":"2015",
"cdata_e_ora_inserimento":"2015-10-26T17:45:46Z",
"cidentificatore_in_openstreetmap":"3803863950",
"clongitudine":"7.796553",
"clatitudine":"45.5922999"
}
,
{
"ccomune":"Saint-Vincent",
"cprovincia":"AOSTA",
"cregione":"Valle d'Aosta",
"cnome":"",
"canno_inserimento":"2014",
"cdata_e_ora_inserimento":"2014-06-23T21:08:34Z",
"cidentificatore_in_openstreetmap":"2930083319",
"clongitudine":"7.6461386",
"clatitudine":"45.7505785"
}
,
{
"ccomune":"Saint-Vincent",
"cprovincia":"AOSTA",
"cregione":"Valle d'Aosta",
"cnome":"",
"canno_inserimento":"2014",
"cdata_e_ora_inserimento":"2014-06-23T21:08:34Z",
"cidentificatore_in_openstreetmap":"2930083321",
"clongitudine":"7.649317",
"clatitudine":"45.7507201"
}
,
{
"ccomune":"Saint-Vincent",
"cprovincia":"AOSTA",
"cregione":"Valle d'Aosta",
"cnome":"",
"canno_inserimento":"2014",
"cdata_e_ora_inserimento":"2014-06-23T21:08:34Z",
"cidentificatore_in_openstreetmap":"2930083323",
"clongitudine":"7.6481102",
"clatitudine":"45.7509821"
}
,
{
"ccomune":"Saint-Vincent",
"cprovincia":"AOSTA",
"cregione":"Valle d'Aosta",
"cnome":"",
"canno_inserimento":"2014",
"cdata_e_ora_inserimento":"2014-06-23T21:08:34Z",
"cidentificatore_in_openstreetmap":"2930083324",
"clongitudine":"7.6477221",
"clatitudine":"45.7509948"
}
,
{
"ccomune":"Saint-Vincent",
"cprovincia":"AOSTA",
"cregione":"Valle d'Aosta",
"cnome":"Lo Peyö",
"canno_inserimento":"2014",
"cdata_e_ora_inserimento":"2014-06-06T18:18:47Z",
"cidentificatore_in_openstreetmap":"2903228717",
"clongitudine":"7.6533543",
"clatitudine":"45.7503999999999"
}
,
{
"ccomune":"Sarre",
"cprovincia":"AOSTA",
"cregione":"Valle d'Aosta",
"cnome":"Bulldog Pub",
"canno_inserimento":"2013",
"cdata_e_ora_inserimento":"2013-11-02T21:10:45Z",
"cidentificatore_in_openstreetmap":"2517852376",
"clongitudine":"7.2718189",
"clatitudine":"45.723782"
}
,
{
"ccomune":"Verres",
"cprovincia":"AOSTA",
"cregione":"Valle d'Aosta",
"cnome":"Bridgé Inn di Frola Milena",
"canno_inserimento":"2013",
"cdata_e_ora_inserimento":"2013-03-15T13:51:02Z",
"cidentificatore_in_openstreetmap":"1729500232",
"clongitudine":"7.6924",
"clatitudine":"45.6683675"
}
,
{
"ccomune":"Verres",
"cprovincia":"AOSTA",
"cregione":"Valle d'Aosta",
"cnome":"The Midland Risto-Pub",
"canno_inserimento":"2015",
"cdata_e_ora_inserimento":"2015-09-12T20:01:32Z",
"cidentificatore_in_openstreetmap":"3366216485",
"clongitudine":"7.6913446",
"clatitudine":"45.6684673"
}
,
{
"ccomune":"Ceriana",
"cprovincia":"IMPERIA",
"cregione":"Liguria",
"cnome":"",
"canno_inserimento":"2011",
"cdata_e_ora_inserimento":"2011-08-08T16:56:58Z",
"cidentificatore_in_openstreetmap":"745407556",
"clongitudine":"7.7737786",
"clatitudine":"43.8804469999999"
}
,
{
"ccomune":"Diano Marina",
"cprovincia":"IMPERIA",
"cregione":"Liguria",
"cnome":"Capriccio",
"canno_inserimento":"2010",
"cdata_e_ora_inserimento":"2010-04-19T22:37:26Z",
"cidentificatore_in_openstreetmap":"691138236",
"clongitudine":"8.0803265",
"clatitudine":"43.9076937"
}
,
{
"ccomune":"Imperia",
"cprovincia":"IMPERIA",
"cregione":"Liguria",
"cnome":"",
"canno_inserimento":"2009",
"cdata_e_ora_inserimento":"2009-08-23T22:00:15Z",
"cidentificatore_in_openstreetmap":"472456116",
"clongitudine":"8.0406046",
"clatitudine":"43.8929568"
}
,
{
"ccomune":"Imperia",
"cprovincia":"IMPERIA",
"cregione":"Liguria",
"cnome":"Black horses",
"canno_inserimento":"2014",
"cdata_e_ora_inserimento":"2014-08-30T19:50:28Z",
"cidentificatore_in_openstreetmap":"3050892126",
"clongitudine":"8.0424683",
"clatitudine":"43.8888679"
}
,
{
"ccomune":"Imperia",
"cprovincia":"IMPERIA",
"cregione":"Liguria",
"cnome":"Le Grotte",
"canno_inserimento":"2015",
"cdata_e_ora_inserimento":"2015-12-02T16:02:04Z",
"cidentificatore_in_openstreetmap":"3873107765",
"clongitudine":"8.0181588",
"clatitudine":"43.8785197999999"
}
,
{
"ccomune":"Riva Ligure",
"cprovincia":"IMPERIA",
"cregione":"Liguria",
"cnome":"Lo Scoglio",
"canno_inserimento":"2013",
"cdata_e_ora_inserimento":"2013-08-14T17:03:45Z",
"cidentificatore_in_openstreetmap":"2417657145",
"clongitudine":"7.882077",
"clatitudine":"43.83713"
}
,
{
"ccomune":"San Remo",
"cprovincia":"IMPERIA",
"cregione":"Liguria",
"cnome":"",
"canno_inserimento":"2012",
"cdata_e_ora_inserimento":"2012-04-24T13:08:50Z",
"cidentificatore_in_openstreetmap":"1721798969",
"clongitudine":"7.7795799",
"clatitudine":"43.8188098999999"
}
,
{
"ccomune":"Celle Ligure",
"cprovincia":"SAVONA",
"cregione":"Liguria",
"cnome":"Durty Nelly's",
"canno_inserimento":"2014",
"cdata_e_ora_inserimento":"2014-06-29T19:05:30Z",
"cidentificatore_in_openstreetmap":"1390072657",
"clongitudine":"8.5440085",
"clatitudine":"44.3406793999999"
}
,
{
"ccomune":"Celle Ligure",
"cprovincia":"SAVONA",
"cregione":"Liguria",
"cnome":"IntrAlcio",
"canno_inserimento":"2011",
"cdata_e_ora_inserimento":"2011-08-07T19:35:15Z",
"cidentificatore_in_openstreetmap":"1390072658",
"clongitudine":"8.5436367",
"clatitudine":"44.3404139"
}
,
{
"ccomune":"Celle Ligure",
"cprovincia":"SAVONA",
"cregione":"Liguria",
"cnome":"La Ghironda",
"canno_inserimento":"2013",
"cdata_e_ora_inserimento":"2013-05-20T05:31:43Z",
"cidentificatore_in_openstreetmap":"2312347590",
"clongitudine":"8.54252529999999",
"clatitudine":"44.3420592"
}
,
{
"ccomune":"Finale Ligure",
"cprovincia":"SAVONA",
"cregione":"Liguria",
"cnome":"Birrificio Finalese",
"canno_inserimento":"2014",
"cdata_e_ora_inserimento":"2014-10-26T21:40:21Z",
"cidentificatore_in_openstreetmap":"3151639968",
"clongitudine":"8.3453016",
"clatitudine":"44.1694948"
}
,
{
"ccomune":"Finale Ligure",
"cprovincia":"SAVONA",
"cregione":"Liguria",
"cnome":"Zum alten Markt",
"canno_inserimento":"2011",
"cdata_e_ora_inserimento":"2011-06-17T13:01:15Z",
"cidentificatore_in_openstreetmap":"1328510475",
"clongitudine":"8.35391199999999",
"clatitudine":"44.1725673999999"
}
,
{
"ccomune":"Savona",
"cprovincia":"SAVONA",
"cregione":"Liguria",
"cnome":"La Boutique della Birra",
"canno_inserimento":"2015",
"cdata_e_ora_inserimento":"2015-04-03T16:35:05Z",
"cidentificatore_in_openstreetmap":"3434680076",
"clongitudine":"8.4759029",
"clatitudine":"44.3011164999999"
}
,
{
"ccomune":"Savona",
"cprovincia":"SAVONA",
"cregione":"Liguria",
"cnome":"La Tana del Luppolo",
"canno_inserimento":"2015",
"cdata_e_ora_inserimento":"2015-04-03T16:25:04Z",
"cidentificatore_in_openstreetmap":"3434665306",
"clongitudine":"8.4789337",
"clatitudine":"44.3027481"
}
,
{
"ccomune":"Savona",
"cprovincia":"SAVONA",
"cregione":"Liguria",
"cnome":"Provençal",
"canno_inserimento":"2013",
"cdata_e_ora_inserimento":"2013-07-13T14:36:42Z",
"cidentificatore_in_openstreetmap":"807646340",
"clongitudine":"8.4756047",
"clatitudine":"44.3048974"
}
,
{
"ccomune":"Toirano",
"cprovincia":"SAVONA",
"cregione":"Liguria",
"cnome":"Bar da Malin",
"canno_inserimento":"2015",
"cdata_e_ora_inserimento":"2015-05-09T20:35:12Z",
"cidentificatore_in_openstreetmap":"3479938167",
"clongitudine":"8.2094369",
"clatitudine":"44.1259985"
}
,
{
"ccomune":"Vado Ligure",
"cprovincia":"SAVONA",
"cregione":"Liguria",
"cnome":"",
"canno_inserimento":"2012",
"cdata_e_ora_inserimento":"2012-10-24T01:52:19Z",
"cidentificatore_in_openstreetmap":"1980479911",
"clongitudine":"8.4405474",
"clatitudine":"44.2762103999999"
}
,
{
"ccomune":"Avegno",
"cprovincia":"GENOVA",
"cregione":"Liguria",
"cnome":"Dottor Jekill e Mister Hide",
"canno_inserimento":"2013",
"cdata_e_ora_inserimento":"2013-12-07T20:07:39Z",
"cidentificatore_in_openstreetmap":"2570313031",
"clongitudine":"9.1632585",
"clatitudine":"44.3835417"
}
,
{
"ccomune":"Bogliasco",
"cprovincia":"GENOVA",
"cregione":"Liguria",
"cnome":"Il Baretto",
"canno_inserimento":"2011",
"cdata_e_ora_inserimento":"2011-01-29T12:37:55Z",
"cidentificatore_in_openstreetmap":"1126159940",
"clongitudine":"9.06848229999999",
"clatitudine":"44.3797319999999"
}
,
{
"ccomune":"Bogliasco",
"cprovincia":"GENOVA",
"cregione":"Liguria",
"cnome":"Music Bar La Piazzetta",
"canno_inserimento":"2011",
"cdata_e_ora_inserimento":"2011-02-21T12:32:15Z",
"cidentificatore_in_openstreetmap":"1164995550",
"clongitudine":"9.0696335",
"clatitudine":"44.3783455"
}
,
{
"ccomune":"Davagna",
"cprovincia":"GENOVA",
"cregione":"Liguria",
"cnome":"Birreria Paninoteca Bar Route 45",
"canno_inserimento":"2014",
"cdata_e_ora_inserimento":"2014-10-11T11:08:46Z",
"cidentificatore_in_openstreetmap":"3123739619",
"clongitudine":"9.1197252",
"clatitudine":"44.4806592999999"
}
,
{
"ccomune":"Genova",
"cprovincia":"GENOVA",
"cregione":"Liguria",
"cnome":"",
"canno_inserimento":"2008",
"cdata_e_ora_inserimento":"2008-03-22T11:04:12Z",
"cidentificatore_in_openstreetmap":"253311645",
"clongitudine":"9.01493",
"clatitudine":"44.4479663999999"
}
,
{
"ccomune":"Genova",
"cprovincia":"GENOVA",
"cregione":"Liguria",
"cnome":"28 Erbe",
"canno_inserimento":"2014",
"cdata_e_ora_inserimento":"2014-05-01T19:17:06Z",
"cidentificatore_in_openstreetmap":"1027897728",
"clongitudine":"8.9327086",
"clatitudine":"44.4060612"
}
,
{
"ccomune":"Genova",
"cprovincia":"GENOVA",
"cregione":"Liguria",
"cnome":"a due passi dal mare",
"canno_inserimento":"2014",
"cdata_e_ora_inserimento":"2014-05-24T11:32:19Z",
"cidentificatore_in_openstreetmap":"1117305808",
"clongitudine":"9.0186887",
"clatitudine":"44.38443"
}
,
{
"ccomune":"Genova",
"cprovincia":"GENOVA",
"cregione":"Liguria",
"cnome":"Ai troeggi (vino, birra e bruschette)",
"canno_inserimento":"2015",
"cdata_e_ora_inserimento":"2015-10-24T21:21:48Z",
"cidentificatore_in_openstreetmap":"2798235384",
"clongitudine":"8.9305488",
"clatitudine":"44.4073235999999"
}
,
{
"ccomune":"Genova",
"cprovincia":"GENOVA",
"cregione":"Liguria",
"cnome":"Alle Volte",
"canno_inserimento":"2014",
"cdata_e_ora_inserimento":"2014-06-04T20:30:55Z",
"cidentificatore_in_openstreetmap":"260209732",
"clongitudine":"8.94745359999999",
"clatitudine":"44.4136991"
}
,
{
"ccomune":"Genova",
"cprovincia":"GENOVA",
"cregione":"Liguria",
"cnome":"American Bar Cubilla",
"canno_inserimento":"2011",
"cdata_e_ora_inserimento":"2011-12-24T10:08:41Z",
"cidentificatore_in_openstreetmap":"1560393331",
"clongitudine":"9.0310436",
"clatitudine":"44.3835839999999"
}
,
{
"ccomune":"Genova",
"cprovincia":"GENOVA",
"cregione":"Liguria",
"cnome":"Bagni Liggia beach",
"canno_inserimento":"2010",
"cdata_e_ora_inserimento":"2010-02-04T15:10:14Z",
"cidentificatore_in_openstreetmap":"628979549",
"clongitudine":"8.98883889999999",
"clatitudine":"44.3911053"
}
,
{
"ccomune":"Genova",
"cprovincia":"GENOVA",
"cregione":"Liguria",
"cnome":"Banano Tsunami",
"canno_inserimento":"2015",
"cdata_e_ora_inserimento":"2015-08-14T08:09:40Z",
"cidentificatore_in_openstreetmap":"260388039",
"clongitudine":"8.9263142",
"clatitudine":"44.4093201"
}
,
{
"ccomune":"Genova",
"cprovincia":"GENOVA",
"cregione":"Liguria",
"cnome":"Bar Alfredo",
"canno_inserimento":"2012",
"cdata_e_ora_inserimento":"2012-05-10T10:13:31Z",
"cidentificatore_in_openstreetmap":"247350388",
"clongitudine":"8.97968629999999",
"clatitudine":"44.4539392"
}
,
{
"ccomune":"Genova",
"cprovincia":"GENOVA",
"cregione":"Liguria",
"cnome":"Bar Berto",
"canno_inserimento":"2014",
"cdata_e_ora_inserimento":"2014-10-01T21:06:14Z",
"cidentificatore_in_openstreetmap":"260204217",
"clongitudine":"8.9325425",
"clatitudine":"44.406277"
}
,
{
"ccomune":"Genova",
"cprovincia":"GENOVA",
"cregione":"Liguria",
"cnome":"Bar Ristorante Sottoripa 7 Rosso",
"canno_inserimento":"2014",
"cdata_e_ora_inserimento":"2014-10-08T13:06:40Z",
"cidentificatore_in_openstreetmap":"2290839420",
"clongitudine":"8.9292398",
"clatitudine":"44.4088143"
}
,
{
"ccomune":"Genova",
"cprovincia":"GENOVA",
"cregione":"Liguria",
"cnome":"Bar Rita",
"canno_inserimento":"2013",
"cdata_e_ora_inserimento":"2013-03-05T13:08:34Z",
"cidentificatore_in_openstreetmap":"2187127853",
"clongitudine":"8.9214724",
"clatitudine":"44.4147065"
}
,
{
"ccomune":"Genova",
"cprovincia":"GENOVA",
"cregione":"Liguria",
"cnome":"Bar Università",
"canno_inserimento":"2015",
"cdata_e_ora_inserimento":"2015-09-27T15:01:17Z",
"cidentificatore_in_openstreetmap":"1596068592",
"clongitudine":"8.9667805",
"clatitudine":"44.4046724999999"
}
,
{
"ccomune":"Genova",
"cprovincia":"GENOVA",
"cregione":"Liguria",
"cnome":"Basilico Caffè",
"canno_inserimento":"2012",
"cdata_e_ora_inserimento":"2012-06-13T17:03:03Z",
"cidentificatore_in_openstreetmap":"1786322467",
"clongitudine":"8.9591911",
"clatitudine":"44.4001509"
}
,
{
"ccomune":"Genova",
"cprovincia":"GENOVA",
"cregione":"Liguria",
"cnome":"Beautiful Looser",
"canno_inserimento":"2016",
"cdata_e_ora_inserimento":"2016-01-11T21:05:31Z",
"cidentificatore_in_openstreetmap":"530667520",
"clongitudine":"8.9386796",
"clatitudine":"44.4110798999999"
}
,
{
"ccomune":"Genova",
"cprovincia":"GENOVA",
"cregione":"Liguria",
"cnome":"Beer Corner",
"canno_inserimento":"2013",
"cdata_e_ora_inserimento":"2013-08-29T20:49:01Z",
"cidentificatore_in_openstreetmap":"307798267",
"clongitudine":"8.8376263",
"clatitudine":"44.4154861999999"
}
,
{
"ccomune":"Genova",
"cprovincia":"GENOVA",
"cregione":"Liguria",
"cnome":"Belli che Aneti",
"canno_inserimento":"2013",
"cdata_e_ora_inserimento":"2013-10-12T15:13:24Z",
"cidentificatore_in_openstreetmap":"2319752863",
"clongitudine":"8.95106949999999",
"clatitudine":"44.3943056999999"
}
,
{
"ccomune":"Genova",
"cprovincia":"GENOVA",
"cregione":"Liguria",
"cnome":"Big Ben Pub",
"canno_inserimento":"2013",
"cdata_e_ora_inserimento":"2013-06-27T19:05:21Z",
"cidentificatore_in_openstreetmap":"2046885006",
"clongitudine":"8.8906642",
"clatitudine":"44.4121507999999"
}
,
{
"ccomune":"Genova",
"cprovincia":"GENOVA",
"cregione":"Liguria",
"cnome":"Birreria Antica Vetreria",
"canno_inserimento":"2015",
"cdata_e_ora_inserimento":"2015-07-26T13:40:34Z",
"cidentificatore_in_openstreetmap":"2046885013",
"clongitudine":"8.92653969999999",
"clatitudine":"44.4066954999999"
}
,
{
"ccomune":"Genova",
"cprovincia":"GENOVA",
"cregione":"Liguria",
"cnome":"Birreria artigianale BiCu",
"canno_inserimento":"2013",
"cdata_e_ora_inserimento":"2013-09-20T20:07:18Z",
"cidentificatore_in_openstreetmap":"260387257",
"clongitudine":"8.9223218",
"clatitudine":"44.4085071"
}
,
{
"ccomune":"Genova",
"cprovincia":"GENOVA",
"cregione":"Liguria",
"cnome":"Birreria Imbarco1",
"canno_inserimento":"2011",
"cdata_e_ora_inserimento":"2011-12-24T10:08:42Z",
"cidentificatore_in_openstreetmap":"1560393362",
"clongitudine":"9.0309835",
"clatitudine":"44.3830950999999"
}
,
{
"ccomune":"Genova",
"cprovincia":"GENOVA",
"cregione":"Liguria",
"cnome":"Birrificio Genovese",
"canno_inserimento":"2012",
"cdata_e_ora_inserimento":"2012-05-05T13:04:11Z",
"cidentificatore_in_openstreetmap":"1741419389",
"clongitudine":"8.9285903",
"clatitudine":"44.4068544"
}
,
{
"ccomune":"Genova",
"cprovincia":"GENOVA",
"cregione":"Liguria",
"cnome":"Blunt Beach Club",
"canno_inserimento":"2014",
"cdata_e_ora_inserimento":"2014-09-28T16:24:17Z",
"cidentificatore_in_openstreetmap":"260205235",
"clongitudine":"8.982815",
"clatitudine":"44.3922795"
}
,
{
"ccomune":"Genova",
"cprovincia":"GENOVA",
"cregione":"Liguria",
"cnome":"Britannia Pub",
"canno_inserimento":"2015",
"cdata_e_ora_inserimento":"2015-09-24T09:46:31Z",
"cidentificatore_in_openstreetmap":"260203471",
"clongitudine":"8.93416369999999",
"clatitudine":"44.4084312999999"
}
,
{
"ccomune":"Genova",
"cprovincia":"GENOVA",
"cregione":"Liguria",
"cnome":"Caffè Lebowsky",
"canno_inserimento":"2014",
"cdata_e_ora_inserimento":"2014-08-20T22:36:02Z",
"cidentificatore_in_openstreetmap":"897248801",
"clongitudine":"8.9302498",
"clatitudine":"44.4057007999999"
}
,
{
"ccomune":"Genova",
"cprovincia":"GENOVA",
"cregione":"Liguria",
"cnome":"Caledonian Pub",
"canno_inserimento":"2009",
"cdata_e_ora_inserimento":"2009-11-20T19:49:07Z",
"cidentificatore_in_openstreetmap":"428001789",
"clongitudine":"8.9572001",
"clatitudine":"44.404203"
}
,
{
"ccomune":"Genova",
"cprovincia":"GENOVA",
"cregione":"Liguria",
"cnome":"Cantine Embriaci",
"canno_inserimento":"2015",
"cdata_e_ora_inserimento":"2015-11-15T14:10:13Z",
"cidentificatore_in_openstreetmap":"1741402075",
"clongitudine":"8.9293209",
"clatitudine":"44.4059989"
}
,
{
"ccomune":"Genova",
"cprovincia":"GENOVA",
"cregione":"Liguria",
"cnome":"Cantine Moretti",
"canno_inserimento":"2011",
"cdata_e_ora_inserimento":"2011-11-09T13:20:23Z",
"cidentificatore_in_openstreetmap":"888875844",
"clongitudine":"8.930802",
"clatitudine":"44.4061349999999"
}
,
{
"ccomune":"Genova",
"cprovincia":"GENOVA",
"cregione":"Liguria",
"cnome":"Cardamomo bistrot",
"canno_inserimento":"2014",
"cdata_e_ora_inserimento":"2014-04-11T19:28:49Z",
"cidentificatore_in_openstreetmap":"2784020780",
"clongitudine":"8.9382639",
"clatitudine":"44.4026263"
}
,
{
"ccomune":"Genova",
"cprovincia":"GENOVA",
"cregione":"Liguria",
"cnome":"carpe diem",
"canno_inserimento":"2011",
"cdata_e_ora_inserimento":"2011-09-08T10:28:23Z",
"cidentificatore_in_openstreetmap":"1426864638",
"clongitudine":"8.9510218",
"clatitudine":"44.3950988"
}
,
{
"ccomune":"Genova",
"cprovincia":"GENOVA",
"cregione":"Liguria",
"cnome":"Cibaria",
"canno_inserimento":"2015",
"cdata_e_ora_inserimento":"2015-03-18T20:24:13Z",
"cidentificatore_in_openstreetmap":"3406063762",
"clongitudine":"8.9254047",
"clatitudine":"44.4076507999999"
}
,
{
"ccomune":"Genova",
"cprovincia":"GENOVA",
"cregione":"Liguria",
"cnome":"Dallorso",
"canno_inserimento":"2015",
"cdata_e_ora_inserimento":"2015-04-10T08:17:42Z",
"cidentificatore_in_openstreetmap":"1496310873",
"clongitudine":"8.9296932",
"clatitudine":"44.406565"
}
,
{
"ccomune":"Genova",
"cprovincia":"GENOVA",
"cregione":"Liguria",
"cnome":"Exultate",
"canno_inserimento":"2014",
"cdata_e_ora_inserimento":"2014-10-01T21:06:14Z",
"cidentificatore_in_openstreetmap":"3106123164",
"clongitudine":"8.9324098",
"clatitudine":"44.4099477999999"
}
,
{
"ccomune":"Genova",
"cprovincia":"GENOVA",
"cregione":"Liguria",
"cnome":"Fast & Furious",
"canno_inserimento":"2015",
"cdata_e_ora_inserimento":"2015-10-30T19:50:00Z",
"cidentificatore_in_openstreetmap":"3757003914",
"clongitudine":"8.9355056",
"clatitudine":"44.4043721"
}
,
{
"ccomune":"Genova",
"cprovincia":"GENOVA",
"cregione":"Liguria",
"cnome":"Gargantua e Pantagruel Bistrot",
"canno_inserimento":"2016",
"cdata_e_ora_inserimento":"2016-02-22T15:34:07Z",
"cidentificatore_in_openstreetmap":"3802495426",
"clongitudine":"8.9309264",
"clatitudine":"44.4102784"
}
,
{
"ccomune":"Genova",
"cprovincia":"GENOVA",
"cregione":"Liguria",
"cnome":"Hemingway'S Pub",
"canno_inserimento":"2008",
"cdata_e_ora_inserimento":"2008-11-07T18:39:53Z",
"cidentificatore_in_openstreetmap":"260201705",
"clongitudine":"8.976568",
"clatitudine":"44.3946977"
}
,
{
"ccomune":"Genova",
"cprovincia":"GENOVA",
"cregione":"Liguria",
"cnome":"Hofbrauhaus Pub",
"canno_inserimento":"2013",
"cdata_e_ora_inserimento":"2013-07-06T16:55:12Z",
"cidentificatore_in_openstreetmap":"2046885031",
"clongitudine":"8.9347195",
"clatitudine":"44.4064888999999"
}
,
{
"ccomune":"Genova",
"cprovincia":"GENOVA",
"cregione":"Liguria",
"cnome":"Il Barbarossa",
"canno_inserimento":"2009",
"cdata_e_ora_inserimento":"2009-12-17T21:59:28Z",
"cidentificatore_in_openstreetmap":"260204471",
"clongitudine":"8.93420049999999",
"clatitudine":"44.405669"
}
,
{
"ccomune":"Genova",
"cprovincia":"GENOVA",
"cregione":"Liguria",
"cnome":"Il Cantinone",
"canno_inserimento":"2012",
"cdata_e_ora_inserimento":"2012-01-29T17:09:42Z",
"cidentificatore_in_openstreetmap":"1610762903",
"clongitudine":"8.8943443",
"clatitudine":"44.4120095"
}
,
{
"ccomune":"Genova",
"cprovincia":"GENOVA",
"cregione":"Liguria",
"cnome":"Il Clan",
"canno_inserimento":"2012",
"cdata_e_ora_inserimento":"2012-05-04T13:26:28Z",
"cidentificatore_in_openstreetmap":"260768521",
"clongitudine":"8.9342272",
"clatitudine":"44.409508"
}
,
{
"ccomune":"Genova",
"cprovincia":"GENOVA",
"cregione":"Liguria",
"cnome":"Il Corsaro Nero",
"canno_inserimento":"2012",
"cdata_e_ora_inserimento":"2012-12-02T19:37:40Z",
"cidentificatore_in_openstreetmap":"2046885021",
"clongitudine":"8.9327667",
"clatitudine":"44.4059676999999"
}
,
{
"ccomune":"Genova",
"cprovincia":"GENOVA",
"cregione":"Liguria",
"cnome":"Il Dodo Beer Wine and Food",
"canno_inserimento":"2011",
"cdata_e_ora_inserimento":"2011-12-24T10:08:42Z",
"cidentificatore_in_openstreetmap":"1560393376",
"clongitudine":"9.0308506",
"clatitudine":"44.3827715999999"
}
,
{
"ccomune":"Genova",
"cprovincia":"GENOVA",
"cregione":"Liguria",
"cnome":"Il Galeone",
"canno_inserimento":"2012",
"cdata_e_ora_inserimento":"2012-09-27T11:19:10Z",
"cidentificatore_in_openstreetmap":"260429020",
"clongitudine":"8.9979735",
"clatitudine":"44.3875470999999"
}
,
{
"ccomune":"Genova",
"cprovincia":"GENOVA",
"cregione":"Liguria",
"cnome":"Il Gallo Brillo",
"canno_inserimento":"2012",
"cdata_e_ora_inserimento":"2012-12-02T19:37:40Z",
"cidentificatore_in_openstreetmap":"2046885064",
"clongitudine":"8.8464557",
"clatitudine":"44.4241589"
}
,
{
"ccomune":"Genova",
"cprovincia":"GENOVA",
"cregione":"Liguria",
"cnome":"Il Lupobiondo",
"canno_inserimento":"2013",
"cdata_e_ora_inserimento":"2013-05-29T19:09:20Z",
"cidentificatore_in_openstreetmap":"2324623464",
"clongitudine":"8.9125419",
"clatitudine":"44.4143199"
}
,
{
"ccomune":"Genova",
"cprovincia":"GENOVA",
"cregione":"Liguria",
"cnome":"Irish Pub",
"canno_inserimento":"2012",
"cdata_e_ora_inserimento":"2012-09-27T12:49:28Z",
"cidentificatore_in_openstreetmap":"260202817",
"clongitudine":"9.0157021",
"clatitudine":"44.3856468999999"
}
,
{
"ccomune":"Genova",
"cprovincia":"GENOVA",
"cregione":"Liguria",
"cnome":"irish pub Molly Malone",
"canno_inserimento":"2012",
"cdata_e_ora_inserimento":"2012-01-13T18:35:54Z",
"cidentificatore_in_openstreetmap":"631975116",
"clongitudine":"8.826559",
"clatitudine":"44.4270276"
}
,
{
"ccomune":"Genova",
"cprovincia":"GENOVA",
"cregione":"Liguria",
"cnome":"I tre merli",
"canno_inserimento":"2009",
"cdata_e_ora_inserimento":"2009-12-17T21:58:05Z",
"cidentificatore_in_openstreetmap":"260768791",
"clongitudine":"8.9328632",
"clatitudine":"44.4105969"
}
,
{
"ccomune":"Genova",
"cprovincia":"GENOVA",
"cregione":"Liguria",
"cnome":"La Banchina",
"canno_inserimento":"2014",
"cdata_e_ora_inserimento":"2014-10-10T12:13:09Z",
"cidentificatore_in_openstreetmap":"2175888044",
"clongitudine":"8.9265053",
"clatitudine":"44.4121286"
}
,
{
"ccomune":"Genova",
"cprovincia":"GENOVA",
"cregione":"Liguria",
"cnome":"La Barcaccia",
"canno_inserimento":"2010",
"cdata_e_ora_inserimento":"2010-09-17T18:58:37Z",
"cidentificatore_in_openstreetmap":"912018222",
"clongitudine":"8.9329152",
"clatitudine":"44.4128801"
}
,
{
"ccomune":"Genova",
"cprovincia":"GENOVA",
"cregione":"Liguria",
"cnome":"La Bottega del Conte",
"canno_inserimento":"2012",
"cdata_e_ora_inserimento":"2012-12-02T19:37:40Z",
"cidentificatore_in_openstreetmap":"2046885027",
"clongitudine":"8.9283465",
"clatitudine":"44.406418"
}
,
{
"ccomune":"Genova",
"cprovincia":"GENOVA",
"cregione":"Liguria",
"cnome":"La Goletta",
"canno_inserimento":"2013",
"cdata_e_ora_inserimento":"2013-09-20T20:07:12Z",
"cidentificatore_in_openstreetmap":"2465863706",
"clongitudine":"8.9225065",
"clatitudine":"44.4086772"
}
,
{
"ccomune":"Genova",
"cprovincia":"GENOVA",
"cregione":"Liguria",
"cnome":"La Locanda",
"canno_inserimento":"2012",
"cdata_e_ora_inserimento":"2012-12-02T19:37:40Z",
"cidentificatore_in_openstreetmap":"2046885061",
"clongitudine":"8.931718",
"clatitudine":"44.4061573999999"
}
,
{
"ccomune":"Genova",
"cprovincia":"GENOVA",
"cregione":"Liguria",
"cnome":"La Nottola",
"canno_inserimento":"2012",
"cdata_e_ora_inserimento":"2012-12-02T19:37:40Z",
"cidentificatore_in_openstreetmap":"2046885039",
"clongitudine":"8.7527101",
"clatitudine":"44.428758"
}
,
{
"ccomune":"Genova",
"cprovincia":"GENOVA",
"cregione":"Liguria",
"cnome":"La Passeggiata Librocaffè",
"canno_inserimento":"2014",
"cdata_e_ora_inserimento":"2014-08-20T22:36:02Z",
"cidentificatore_in_openstreetmap":"1699988549",
"clongitudine":"8.9300984",
"clatitudine":"44.4042031999999"
}
,
{
"ccomune":"Genova",
"cprovincia":"GENOVA",
"cregione":"Liguria",
"cnome":"La Trampa",
"canno_inserimento":"2012",
"cdata_e_ora_inserimento":"2012-12-02T19:37:41Z",
"cidentificatore_in_openstreetmap":"1741427852",
"clongitudine":"8.9306292",
"clatitudine":"44.4064774"
}
,
{
"ccomune":"Genova",
"cprovincia":"GENOVA",
"cregione":"Liguria",
"cnome":"Le 3 Caravelle",
"canno_inserimento":"2013",
"cdata_e_ora_inserimento":"2013-05-28T21:07:38Z",
"cidentificatore_in_openstreetmap":"260398990",
"clongitudine":"8.9260239",
"clatitudine":"44.4075305"
}
,
{
"ccomune":"Genova",
"cprovincia":"GENOVA",
"cregione":"Liguria",
"cnome":"Le Corbusier",
"canno_inserimento":"2010",
"cdata_e_ora_inserimento":"2010-09-02T20:03:41Z",
"cidentificatore_in_openstreetmap":"260207691",
"clongitudine":"8.9315443",
"clatitudine":"44.4059219999999"
}
,
{
"ccomune":"Genova",
"cprovincia":"GENOVA",
"cregione":"Liguria",
"cnome":"Le due porte",
"canno_inserimento":"2012",
"cdata_e_ora_inserimento":"2012-05-20T12:03:41Z",
"cidentificatore_in_openstreetmap":"1741445220",
"clongitudine":"8.9283632",
"clatitudine":"44.4062971"
}
,
{
"ccomune":"Genova",
"cprovincia":"GENOVA",
"cregione":"Liguria",
"cnome":"Mackenny Brewery Pub",
"canno_inserimento":"2015",
"cdata_e_ora_inserimento":"2015-09-27T20:12:01Z",
"cidentificatore_in_openstreetmap":"3761878624",
"clongitudine":"8.9290055",
"clatitudine":"44.4047768"
}
,
{
"ccomune":"Genova",
"cprovincia":"GENOVA",
"cregione":"Liguria",
"cnome":"MacKenny Pub",
"canno_inserimento":"2012",
"cdata_e_ora_inserimento":"2012-05-05T13:06:42Z",
"cidentificatore_in_openstreetmap":"1133646687",
"clongitudine":"8.9338884",
"clatitudine":"44.4046183"
}
,
{
"ccomune":"Genova",
"cprovincia":"GENOVA",
"cregione":"Liguria",
"cnome":"Mattoni Rossi",
"canno_inserimento":"2008",
"cdata_e_ora_inserimento":"2008-04-27T16:43:05Z",
"cidentificatore_in_openstreetmap":"260211133",
"clongitudine":"8.93792069999999",
"clatitudine":"44.4020857"
}
,
{
"ccomune":"Genova",
"cprovincia":"GENOVA",
"cregione":"Liguria",
"cnome":"Medio Evo",
"canno_inserimento":"2012",
"cdata_e_ora_inserimento":"2012-05-09T15:47:05Z",
"cidentificatore_in_openstreetmap":"1746751085",
"clongitudine":"8.9500823",
"clatitudine":"44.4083589"
}
,
{
"ccomune":"Genova",
"cprovincia":"GENOVA",
"cregione":"Liguria",
"cnome":"Mentelocale",
"canno_inserimento":"2014",
"cdata_e_ora_inserimento":"2014-12-23T18:07:57Z",
"cidentificatore_in_openstreetmap":"260208170",
"clongitudine":"8.9332229",
"clatitudine":"44.4076122"
}
,
{
"ccomune":"Genova",
"cprovincia":"GENOVA",
"cregione":"Liguria",
"cnome":"Moody's",
"canno_inserimento":"2012",
"cdata_e_ora_inserimento":"2012-07-20T19:41:30Z",
"cidentificatore_in_openstreetmap":"1832396980",
"clongitudine":"8.9367979",
"clatitudine":"44.4075652"
}
,
{
"ccomune":"Genova",
"cprovincia":"GENOVA",
"cregione":"Liguria",
"cnome":"Movida Cafè",
"canno_inserimento":"2014",
"cdata_e_ora_inserimento":"2014-08-08T16:21:01Z",
"cidentificatore_in_openstreetmap":"260215650",
"clongitudine":"8.932907",
"clatitudine":"44.4046658999999"
}
,
{
"ccomune":"Genova",
"cprovincia":"GENOVA",
"cregione":"Liguria",
"cnome":"Myu Coffee Art & Liquid Lab",
"canno_inserimento":"2014",
"cdata_e_ora_inserimento":"2014-10-09T15:08:00Z",
"cidentificatore_in_openstreetmap":"3120670441",
"clongitudine":"8.93313249999999",
"clatitudine":"44.4098672"
}
,
{
"ccomune":"Genova",
"cprovincia":"GENOVA",
"cregione":"Liguria",
"cnome":"New Chandra",
"canno_inserimento":"2015",
"cdata_e_ora_inserimento":"2015-09-26T14:12:03Z",
"cidentificatore_in_openstreetmap":"1112966661",
"clongitudine":"9.0430119",
"clatitudine":"44.3805738"
}
,
{
"ccomune":"Genova",
"cprovincia":"GENOVA",
"cregione":"Liguria",
"cnome":"New White Rabbit",
"canno_inserimento":"2015",
"cdata_e_ora_inserimento":"2015-09-27T21:52:48Z",
"cidentificatore_in_openstreetmap":"888875806",
"clongitudine":"8.9290371",
"clatitudine":"44.4065841"
}
,
{
"ccomune":"Genova",
"cprovincia":"GENOVA",
"cregione":"Liguria",
"cnome":"Norte Sul",
"canno_inserimento":"2011",
"cdata_e_ora_inserimento":"2011-12-16T17:08:01Z",
"cidentificatore_in_openstreetmap":"505774117",
"clongitudine":"8.97435499999999",
"clatitudine":"44.3916966999999"
}
,
{
"ccomune":"Genova",
"cprovincia":"GENOVA",
"cregione":"Liguria",
"cnome":"Nosferatu",
"canno_inserimento":"2014",
"cdata_e_ora_inserimento":"2014-05-07T18:58:02Z",
"cidentificatore_in_openstreetmap":"2842488503",
"clongitudine":"8.9441421",
"clatitudine":"44.3994149999999"
}
,
{
"ccomune":"Genova",
"cprovincia":"GENOVA",
"cregione":"Liguria",
"cnome":"Nuhar club",
"canno_inserimento":"2009",
"cdata_e_ora_inserimento":"2009-12-17T21:58:05Z",
"cidentificatore_in_openstreetmap":"260768713",
"clongitudine":"8.93331809999999",
"clatitudine":"44.4106213999999"
}
,
{
"ccomune":"Genova",
"cprovincia":"GENOVA",
"cregione":"Liguria",
"cnome":"Okey Pub",
"canno_inserimento":"2011",
"cdata_e_ora_inserimento":"2011-11-01T10:08:45Z",
"cidentificatore_in_openstreetmap":"1488354825",
"clongitudine":"8.9544657",
"clatitudine":"44.4174615"
}
,
{
"ccomune":"Genova",
"cprovincia":"GENOVA",
"cregione":"Liguria",
"cnome":"Old Port Bar",
"canno_inserimento":"2014",
"cdata_e_ora_inserimento":"2014-11-22T17:36:18Z",
"cidentificatore_in_openstreetmap":"2028670159",
"clongitudine":"8.9252502",
"clatitudine":"44.4119628999999"
}
,
{
"ccomune":"Genova",
"cprovincia":"GENOVA",
"cregione":"Liguria",
"cnome":"One Eyed Jacks",
"canno_inserimento":"2013",
"cdata_e_ora_inserimento":"2013-05-28T21:07:30Z",
"cidentificatore_in_openstreetmap":"2323676504",
"clongitudine":"8.92612609999999",
"clatitudine":"44.4075129"
}
,
{
"ccomune":"Genova",
"cprovincia":"GENOVA",
"cregione":"Liguria",
"cnome":"Pizzeria Birreria Friends",
"canno_inserimento":"2014",
"cdata_e_ora_inserimento":"2014-05-01T19:17:05Z",
"cidentificatore_in_openstreetmap":"1571603804",
"clongitudine":"8.9318688",
"clatitudine":"44.4059507999999"
}
,
{
"ccomune":"Genova",
"cprovincia":"GENOVA",
"cregione":"Liguria",
"cnome":"Planet",
"canno_inserimento":"2010",
"cdata_e_ora_inserimento":"2010-04-28T21:26:31Z",
"cidentificatore_in_openstreetmap":"710918492",
"clongitudine":"8.953882",
"clatitudine":"44.3984118999999"
}
,
{
"ccomune":"Genova",
"cprovincia":"GENOVA",
"cregione":"Liguria",
"cnome":"Pub Al Cantiere",
"canno_inserimento":"2012",
"cdata_e_ora_inserimento":"2012-01-13T18:35:31Z",
"cidentificatore_in_openstreetmap":"1588634086",
"clongitudine":"8.8387736",
"clatitudine":"44.4275088999999"
}
,
{
"ccomune":"Genova",
"cprovincia":"GENOVA",
"cregione":"Liguria",
"cnome":"Pub del Duca",
"canno_inserimento":"2008",
"cdata_e_ora_inserimento":"2008-11-13T19:33:47Z",
"cidentificatore_in_openstreetmap":"260205590",
"clongitudine":"9.0519833",
"clatitudine":"44.380048"
}
,
{
"ccomune":"Genova",
"cprovincia":"GENOVA",
"cregione":"Liguria",
"cnome":"Pub D'oh",
"canno_inserimento":"2012",
"cdata_e_ora_inserimento":"2012-06-08T19:25:15Z",
"cidentificatore_in_openstreetmap":"1780658085",
"clongitudine":"8.9497341",
"clatitudine":"44.3993820999999"
}
,
{
"ccomune":"Genova",
"cprovincia":"GENOVA",
"cregione":"Liguria",
"cnome":"Pub Rossodisera",
"canno_inserimento":"2011",
"cdata_e_ora_inserimento":"2011-12-31T16:59:06Z",
"cidentificatore_in_openstreetmap":"1571603800",
"clongitudine":"8.9321105",
"clatitudine":"44.4059493"
}
,
{
"ccomune":"Genova",
"cprovincia":"GENOVA",
"cregione":"Liguria",
"cnome":"Scassadiavoli",
"canno_inserimento":"2014",
"cdata_e_ora_inserimento":"2014-09-21T17:01:08Z",
"cidentificatore_in_openstreetmap":"260209245",
"clongitudine":"8.94214629999999",
"clatitudine":"44.4040498"
}
,
{
"ccomune":"Genova",
"cprovincia":"GENOVA",
"cregione":"Liguria",
"cnome":"Sehnor do Bonfim",
"canno_inserimento":"2011",
"cdata_e_ora_inserimento":"2011-01-21T12:54:07Z",
"cidentificatore_in_openstreetmap":"1112966373",
"clongitudine":"9.03987309999999",
"clatitudine":"44.3810444"
}
,
{
"ccomune":"Genova",
"cprovincia":"GENOVA",
"cregione":"Liguria",
"cnome":"Tartan Pub",
"canno_inserimento":"2009",
"cdata_e_ora_inserimento":"2009-06-22T15:39:11Z",
"cidentificatore_in_openstreetmap":"260723820",
"clongitudine":"8.9539044",
"clatitudine":"44.4039627"
}
,
{
"ccomune":"Genova",
"cprovincia":"GENOVA",
"cregione":"Liguria",
"cnome":"Taverna degli Alabardieri",
"canno_inserimento":"2009",
"cdata_e_ora_inserimento":"2009-12-17T21:59:25Z",
"cidentificatore_in_openstreetmap":"260399226",
"clongitudine":"8.93063489999999",
"clatitudine":"44.4056259999999"
}
,
{
"ccomune":"Genova",
"cprovincia":"GENOVA",
"cregione":"Liguria",
"cnome":"Tire-Bouchon",
"canno_inserimento":"2015",
"cdata_e_ora_inserimento":"2015-10-25T18:20:01Z",
"cidentificatore_in_openstreetmap":"3802495431",
"clongitudine":"8.932319",
"clatitudine":"44.4100769"
}
,
{
"ccomune":"Genova",
"cprovincia":"GENOVA",
"cregione":"Liguria",
"cnome":"Tumbler",
"canno_inserimento":"2015",
"cdata_e_ora_inserimento":"2015-12-02T23:08:21Z",
"cidentificatore_in_openstreetmap":"632872119",
"clongitudine":"8.85255959999999",
"clatitudine":"44.4240635"
}
,
{
"ccomune":"Genova",
"cprovincia":"GENOVA",
"cregione":"Liguria",
"cnome":"Vernissage",
"canno_inserimento":"2012",
"cdata_e_ora_inserimento":"2012-10-22T20:00:24Z",
"cidentificatore_in_openstreetmap":"1978484076",
"clongitudine":"8.9365684",
"clatitudine":"44.4011961"
}
,
{
"ccomune":"Genova",
"cprovincia":"GENOVA",
"cregione":"Liguria",
"cnome":"Wild Drink Cafè",
"canno_inserimento":"2015",
"cdata_e_ora_inserimento":"2015-05-12T08:46:01Z",
"cidentificatore_in_openstreetmap":"317621119",
"clongitudine":"9.0324823",
"clatitudine":"44.3844331"
}
,
{
"ccomune":"Genova",
"cprovincia":"GENOVA",
"cregione":"Liguria",
"cnome":"XO Food and Spirits Selection",
"canno_inserimento":"2012",
"cdata_e_ora_inserimento":"2012-06-04T10:23:03Z",
"cidentificatore_in_openstreetmap":"262520022",
"clongitudine":"8.944043",
"clatitudine":"44.4031109"
}
,
{
"ccomune":"Genova",
"cprovincia":"GENOVA",
"cregione":"Liguria",
"cnome":"Zacaria",
"canno_inserimento":"2012",
"cdata_e_ora_inserimento":"2012-02-16T11:29:51Z",
"cidentificatore_in_openstreetmap":"888875760",
"clongitudine":"8.9285859",
"clatitudine":"44.4065826"
}
,
{
"ccomune":"Lavagna",
"cprovincia":"GENOVA",
"cregione":"Liguria",
"cnome":"Tana del Luppolo",
"canno_inserimento":"2012",
"cdata_e_ora_inserimento":"2012-09-30T19:30:17Z",
"cidentificatore_in_openstreetmap":"1757399429",
"clongitudine":"9.3722858",
"clatitudine":"44.2941213"
}
,
{
"ccomune":"Savignone",
"cprovincia":"GENOVA",
"cregione":"Liguria",
"cnome":"Claymore",
"canno_inserimento":"2012",
"cdata_e_ora_inserimento":"2012-10-26T21:54:38Z",
"cidentificatore_in_openstreetmap":"1985054891",
"clongitudine":"8.9640432",
"clatitudine":"44.5663312"
}
,
{
"ccomune":"Savignone",
"cprovincia":"GENOVA",
"cregione":"Liguria",
"cnome":"Fabbrica Birra Busalla",
"canno_inserimento":"2014",
"cdata_e_ora_inserimento":"2014-06-03T09:06:06Z",
"cidentificatore_in_openstreetmap":"2896761561",
"clongitudine":"8.9555032",
"clatitudine":"44.5671935"
}
,
{
"ccomune":"Savignone",
"cprovincia":"GENOVA",
"cregione":"Liguria",
"cnome":"Hermann Hesse",
"canno_inserimento":"2013",
"cdata_e_ora_inserimento":"2013-12-28T00:31:13Z",
"cidentificatore_in_openstreetmap":"2597738500",
"clongitudine":"8.9896461",
"clatitudine":"44.5645956999999"
}
,
{
"ccomune":"Serra Ricco'",
"cprovincia":"GENOVA",
"cregione":"Liguria",
"cnome":"Bulldog Pub",
"canno_inserimento":"2012",
"cdata_e_ora_inserimento":"2012-12-02T19:59:30Z",
"cidentificatore_in_openstreetmap":"2046954724",
"clongitudine":"8.939733499999999",
"clatitudine":"44.5212828"
}
,
{
"ccomune":"Bonassola",
"cprovincia":"LA SPEZIA",
"cregione":"Liguria",
"cnome":"Bar Ristorante Lorella",
"canno_inserimento":"2013",
"cdata_e_ora_inserimento":"2013-11-21T09:50:21Z",
"cidentificatore_in_openstreetmap":"1119930991",
"clongitudine":"9.576508",
"clatitudine":"44.1956701"
}
,
{
"ccomune":"Deiva Marina",
"cprovincia":"LA SPEZIA",
"cregione":"Liguria",
"cnome":"",
"canno_inserimento":"2012",
"cdata_e_ora_inserimento":"2012-08-24T11:07:12Z",
"cidentificatore_in_openstreetmap":"1880638380",
"clongitudine":"9.5137433",
"clatitudine":"44.2164354"
}
,
{
"ccomune":"La Spezia",
"cprovincia":"LA SPEZIA",
"cregione":"Liguria",
"cnome":"La Taverna Del Metallo",
"canno_inserimento":"2013",
"cdata_e_ora_inserimento":"2013-01-27T16:25:04Z",
"cidentificatore_in_openstreetmap":"2130996447",
"clongitudine":"9.8179957",
"clatitudine":"44.1076102"
}
,
{
"ccomune":"Riomaggiore",
"cprovincia":"LA SPEZIA",
"cregione":"Liguria",
"cnome":"",
"canno_inserimento":"2014",
"cdata_e_ora_inserimento":"2014-06-10T11:09:59Z",
"cidentificatore_in_openstreetmap":"2149694646",
"clongitudine":"9.7296014",
"clatitudine":"44.1150312999999"
}
,
{
"ccomune":"Angera",
"cprovincia":"VARESE",
"cregione":"Lombardia",
"cnome":"",
"canno_inserimento":"2012",
"cdata_e_ora_inserimento":"2012-10-02T08:28:53Z",
"cidentificatore_in_openstreetmap":"307599006",
"clongitudine":"8.6183157",
"clatitudine":"45.7861309999999"
}
,
{
"ccomune":"Barasso",
"cprovincia":"VARESE",
"cregione":"Lombardia",
"cnome":"Prins Willem",
"canno_inserimento":"2015",
"cdata_e_ora_inserimento":"2015-06-01T17:54:34Z",
"cidentificatore_in_openstreetmap":"538424577",
"clongitudine":"8.7574703",
"clatitudine":"45.8399612999999"
}
,
{
"ccomune":"Besnate",
"cprovincia":"VARESE",
"cregione":"Lombardia",
"cnome":"Bar New Deal",
"canno_inserimento":"2015",
"cdata_e_ora_inserimento":"2015-11-04T14:52:04Z",
"cidentificatore_in_openstreetmap":"529487662",
"clongitudine":"8.7665297",
"clatitudine":"45.7013505999999"
}
,
{
"ccomune":"Brebbia",
"cprovincia":"VARESE",
"cregione":"Lombardia",
"cnome":"",
"canno_inserimento":"2015",
"cdata_e_ora_inserimento":"2015-08-10T18:47:08Z",
"cidentificatore_in_openstreetmap":"3690018137",
"clongitudine":"8.6583515",
"clatitudine":"45.8374146"
}
,
{
"ccomune":"Brebbia",
"cprovincia":"VARESE",
"cregione":"Lombardia",
"cnome":"Il Nazionale",
"canno_inserimento":"2012",
"cdata_e_ora_inserimento":"2012-12-11T11:33:04Z",
"cidentificatore_in_openstreetmap":"1174457817",
"clongitudine":"8.64791559999999",
"clatitudine":"45.8299156"
}
,
{
"ccomune":"Brenta",
"cprovincia":"VARESE",
"cregione":"Lombardia",
"cnome":"Texas Bar",
"canno_inserimento":"2012",
"cdata_e_ora_inserimento":"2012-11-13T18:28:14Z",
"cidentificatore_in_openstreetmap":"2012708266",
"clongitudine":"8.69068719999999",
"clatitudine":"45.8935195999999"
}
,
{
"ccomune":"Busto Arsizio",
"cprovincia":"VARESE",
"cregione":"Lombardia",
"cnome":"Bacco Tabacco e Venere",
"canno_inserimento":"2014",
"cdata_e_ora_inserimento":"2014-02-28T16:54:51Z",
"cidentificatore_in_openstreetmap":"1859544748",
"clongitudine":"8.824804",
"clatitudine":"45.6073416999999"
}
,
{
"ccomune":"Busto Arsizio",
"cprovincia":"VARESE",
"cregione":"Lombardia",
"cnome":"Cat & Bagpipes",
"canno_inserimento":"2013",
"cdata_e_ora_inserimento":"2013-12-23T13:33:18Z",
"cidentificatore_in_openstreetmap":"2591414835",
"clongitudine":"8.8399534",
"clatitudine":"45.6186445"
}
,
{
"ccomune":"Busto Arsizio",
"cprovincia":"VARESE",
"cregione":"Lombardia",
"cnome":"Face 2 face",
"canno_inserimento":"2010",
"cdata_e_ora_inserimento":"2010-04-07T12:45:57Z",
"cidentificatore_in_openstreetmap":"687472093",
"clongitudine":"8.8383483",
"clatitudine":"45.6111515999999"
}
,
{
"ccomune":"Busto Arsizio",
"cprovincia":"VARESE",
"cregione":"Lombardia",
"cnome":"Sella54",
"canno_inserimento":"2015",
"cdata_e_ora_inserimento":"2015-09-08T22:50:23Z",
"cidentificatore_in_openstreetmap":"3735255501",
"clongitudine":"8.8402659",
"clatitudine":"45.6207774"
}
,
{
"ccomune":"Busto Arsizio",
"cprovincia":"VARESE",
"cregione":"Lombardia",
"cnome":"Strix Bar",
"canno_inserimento":"2014",
"cdata_e_ora_inserimento":"2014-03-23T11:54:02Z",
"cidentificatore_in_openstreetmap":"2736317478",
"clongitudine":"8.8649289",
"clatitudine":"45.6210596"
}
,
{
"ccomune":"Busto Arsizio",
"cprovincia":"VARESE",
"cregione":"Lombardia",
"cnome":"The Millenium",
"canno_inserimento":"2014",
"cdata_e_ora_inserimento":"2014-02-28T22:27:17Z",
"cidentificatore_in_openstreetmap":"2676867105",
"clongitudine":"8.8496304",
"clatitudine":"45.6137175"
}
,
{
"ccomune":"Busto Arsizio",
"cprovincia":"VARESE",
"cregione":"Lombardia",
"cnome":"The Poppinjay Pub",
"canno_inserimento":"2014",
"cdata_e_ora_inserimento":"2014-05-31T21:46:30Z",
"cidentificatore_in_openstreetmap":"2892444913",
"clongitudine":"8.8378504",
"clatitudine":"45.6116419"
}
,
{
"ccomune":"Busto Arsizio",
"cprovincia":"VARESE",
"cregione":"Lombardia",
"cnome":"The wolf pub",
"canno_inserimento":"2015",
"cdata_e_ora_inserimento":"2015-12-28T11:08:06Z",
"cidentificatore_in_openstreetmap":"2661130201",
"clongitudine":"8.8142836",
"clatitudine":"45.6077202999999"
}
,
{
"ccomune":"Cadrezzate",
"cprovincia":"VARESE",
"cregione":"Lombardia",
"cnome":"La Parada",
"canno_inserimento":"2015",
"cdata_e_ora_inserimento":"2015-12-14T17:46:09Z",
"cidentificatore_in_openstreetmap":"476528163",
"clongitudine":"8.6449155",
"clatitudine":"45.7982276999999"
}
,
{
"ccomune":"Cairate",
"cprovincia":"VARESE",
"cregione":"Lombardia",
"cnome":"Bei Ben",
"canno_inserimento":"2012",
"cdata_e_ora_inserimento":"2012-08-07T15:35:24Z",
"cidentificatore_in_openstreetmap":"1855745044",
"clongitudine":"8.8426383",
"clatitudine":"45.6817037"
}
,
{
"ccomune":"Cardano al Campo",
"cprovincia":"VARESE",
"cregione":"Lombardia",
"cnome":"Circolo Quarto Stato",
"canno_inserimento":"2015",
"cdata_e_ora_inserimento":"2015-06-01T18:08:40Z",
"cidentificatore_in_openstreetmap":"2196688636",
"clongitudine":"8.77338239999999",
"clatitudine":"45.6465736999999"
}
,
{
"ccomune":"Carnago",
"cprovincia":"VARESE",
"cregione":"Lombardia",
"cnome":"Siebter Himmel",
"canno_inserimento":"2015",
"cdata_e_ora_inserimento":"2015-06-01T18:08:41Z",
"cidentificatore_in_openstreetmap":"2467224523",
"clongitudine":"8.82628839999999",
"clatitudine":"45.7198923999999"
}
,
{
"ccomune":"Casalzuigno",
"cprovincia":"VARESE",
"cregione":"Lombardia",
"cnome":"",
"canno_inserimento":"2010",
"cdata_e_ora_inserimento":"2010-08-16T11:44:35Z",
"cidentificatore_in_openstreetmap":"863095365",
"clongitudine":"8.7165572",
"clatitudine":"45.9168494999999"
}
,
{
"ccomune":"Casorate Sempione",
"cprovincia":"VARESE",
"cregione":"Lombardia",
"cnome":"Crazy Pub",
"canno_inserimento":"2014",
"cdata_e_ora_inserimento":"2014-10-10T16:18:41Z",
"cidentificatore_in_openstreetmap":"3122518535",
"clongitudine":"8.7410704",
"clatitudine":"45.6739932999999"
}
,
{
"ccomune":"Castellanza",
"cprovincia":"VARESE",
"cregione":"Lombardia",
"cnome":"Löwengrube",
"canno_inserimento":"2015",
"cdata_e_ora_inserimento":"2015-11-21T17:22:46Z",
"cidentificatore_in_openstreetmap":"3849339377",
"clongitudine":"8.8848661",
"clatitudine":"45.614401"
}
,
{
"ccomune":"Castellanza",
"cprovincia":"VARESE",
"cregione":"Lombardia",
"cnome":"Queen Pub",
"canno_inserimento":"2014",
"cdata_e_ora_inserimento":"2014-10-19T18:55:24Z",
"cidentificatore_in_openstreetmap":"1913865602",
"clongitudine":"8.88218509999999",
"clatitudine":"45.6148619"
}
,
{
"ccomune":"Castelseprio",
"cprovincia":"VARESE",
"cregione":"Lombardia",
"cnome":"Kapuziner Platz",
"canno_inserimento":"2015",
"cdata_e_ora_inserimento":"2015-02-27T07:07:45Z",
"cidentificatore_in_openstreetmap":"3374366947",
"clongitudine":"8.867257",
"clatitudine":"45.7095867999999"
}
,
{
"ccomune":"Castiglione Olona",
"cprovincia":"VARESE",
"cregione":"Lombardia",
"cnome":"L'Andy LiveMusic",
"canno_inserimento":"2014",
"cdata_e_ora_inserimento":"2014-08-15T20:07:07Z",
"cidentificatore_in_openstreetmap":"3018849685",
"clongitudine":"8.8698589",
"clatitudine":"45.7424625"
}
,
{
"ccomune":"Castronno",
"cprovincia":"VARESE",
"cregione":"Lombardia",
"cnome":"Cupido",
"canno_inserimento":"2011",
"cdata_e_ora_inserimento":"2011-09-13T19:57:31Z",
"cidentificatore_in_openstreetmap":"1432161825",
"clongitudine":"8.8148629",
"clatitudine":"45.7456608"
}
,
{
"ccomune":"Cislago",
"cprovincia":"VARESE",
"cregione":"Lombardia",
"cnome":"Il Ramo d'Oro",
"canno_inserimento":"2012",
"cdata_e_ora_inserimento":"2012-05-30T15:08:12Z",
"cidentificatore_in_openstreetmap":"1770507552",
"clongitudine":"8.9719855",
"clatitudine":"45.6582447999999"
}
,
{
"ccomune":"Gallarate",
"cprovincia":"VARESE",
"cregione":"Lombardia",
"cnome":"Bellaria",
"canno_inserimento":"2013",
"cdata_e_ora_inserimento":"2013-10-26T11:47:41Z",
"cidentificatore_in_openstreetmap":"2281457828",
"clongitudine":"8.7664502",
"clatitudine":"45.6685102"
}
,
{
"ccomune":"Gallarate",
"cprovincia":"VARESE",
"cregione":"Lombardia",
"cnome":"Il Barbaresco",
"canno_inserimento":"2014",
"cdata_e_ora_inserimento":"2014-09-12T14:16:28Z",
"cidentificatore_in_openstreetmap":"2736317261",
"clongitudine":"8.7929534",
"clatitudine":"45.6604537999999"
}
,
{
"ccomune":"Gallarate",
"cprovincia":"VARESE",
"cregione":"Lombardia",
"cnome":"La Taverna del Bucaniere",
"canno_inserimento":"2016",
"cdata_e_ora_inserimento":"2016-01-22T15:58:38Z",
"cidentificatore_in_openstreetmap":"3959815685",
"clongitudine":"8.7916127",
"clatitudine":"45.6598595"
}
,
{
"ccomune":"Gallarate",
"cprovincia":"VARESE",
"cregione":"Lombardia",
"cnome":"Muffy's",
"canno_inserimento":"2015",
"cdata_e_ora_inserimento":"2015-10-31T15:50:36Z",
"cidentificatore_in_openstreetmap":"3807609971",
"clongitudine":"8.779881",
"clatitudine":"45.6689458999999"
}
,
{
"ccomune":"Gallarate",
"cprovincia":"VARESE",
"cregione":"Lombardia",
"cnome":"Route 66",
"canno_inserimento":"2013",
"cdata_e_ora_inserimento":"2013-09-29T11:10:42Z",
"cidentificatore_in_openstreetmap":"2476439750",
"clongitudine":"8.7987556",
"clatitudine":"45.6786571"
}
,
{
"ccomune":"Gallarate",
"cprovincia":"VARESE",
"cregione":"Lombardia",
"cnome":"The Australian Pub",
"canno_inserimento":"2015",
"cdata_e_ora_inserimento":"2015-11-28T15:40:31Z",
"cidentificatore_in_openstreetmap":"3865219829",
"clongitudine":"8.8088985",
"clatitudine":"45.6661021999999"
}
,
{
"ccomune":"Gallarate",
"cprovincia":"VARESE",
"cregione":"Lombardia",
"cnome":"The Donegal Pub",
"canno_inserimento":"2014",
"cdata_e_ora_inserimento":"2014-09-12T14:16:34Z",
"cidentificatore_in_openstreetmap":"2517172306",
"clongitudine":"8.7974595",
"clatitudine":"45.6675589"
}
,
{
"ccomune":"Gallarate",
"cprovincia":"VARESE",
"cregione":"Lombardia",
"cnome":"Warpipe",
"canno_inserimento":"2013",
"cdata_e_ora_inserimento":"2013-09-29T10:54:36Z",
"cidentificatore_in_openstreetmap":"711171832",
"clongitudine":"8.8019747",
"clatitudine":"45.6590344"
}
,
{
"ccomune":"Gavirate",
"cprovincia":"VARESE",
"cregione":"Lombardia",
"cnome":"Bar Caffè \"\"barbiis\"\"",
"canno_inserimento":"2011",
"cdata_e_ora_inserimento":"2011-10-29T14:57:40Z",
"cidentificatore_in_openstreetmap":"292723173",
"clongitudine":"8.7414681",
"clatitudine":"45.8289611"
}
,
{
"ccomune":"Gemonio",
"cprovincia":"VARESE",
"cregione":"Lombardia",
"cnome":"A.MA.LU",
"canno_inserimento":"2014",
"cdata_e_ora_inserimento":"2014-03-29T00:14:58Z",
"cidentificatore_in_openstreetmap":"2750987911",
"clongitudine":"8.6720828",
"clatitudine":"45.8802725999999"
}
,
{
"ccomune":"Inarzo",
"cprovincia":"VARESE",
"cregione":"Lombardia",
"cnome":"The Johnny Reb",
"canno_inserimento":"2015",
"cdata_e_ora_inserimento":"2015-11-12T15:34:02Z",
"cidentificatore_in_openstreetmap":"2805925703",
"clongitudine":"8.7348823",
"clatitudine":"45.7858321"
}
,
{
"ccomune":"Induno Olona",
"cprovincia":"VARESE",
"cregione":"Lombardia",
"cnome":"Excalibur Beer & Dreams s.r.l.",
"canno_inserimento":"2015",
"cdata_e_ora_inserimento":"2015-01-11T12:52:09Z",
"cidentificatore_in_openstreetmap":"1591470017",
"clongitudine":"8.85377989999999",
"clatitudine":"45.8578511999999"
}
,
{
"ccomune":"Ispra",
"cprovincia":"VARESE",
"cregione":"Lombardia",
"cnome":"Bar Forever",
"canno_inserimento":"2008",
"cdata_e_ora_inserimento":"2008-08-28T07:50:06Z",
"cidentificatore_in_openstreetmap":"266674116",
"clongitudine":"8.6205066",
"clatitudine":"45.8119378"
}
,
{
"ccomune":"Laveno-Mombello",
"cprovincia":"VARESE",
"cregione":"Lombardia",
"cnome":"La Pinta",
"canno_inserimento":"2015",
"cdata_e_ora_inserimento":"2015-12-13T02:47:32Z",
"cidentificatore_in_openstreetmap":"2225475068",
"clongitudine":"8.6192366",
"clatitudine":"45.9086898999999"
}
,
{
"ccomune":"Mornago",
"cprovincia":"VARESE",
"cregione":"Lombardia",
"cnome":"Café Racer",
"canno_inserimento":"2016",
"cdata_e_ora_inserimento":"2016-01-12T14:48:49Z",
"cidentificatore_in_openstreetmap":"3941762734",
"clongitudine":"8.7336644",
"clatitudine":"45.7309097999999"
}
,
{
"ccomune":"Olgiate Olona",
"cprovincia":"VARESE",
"cregione":"Lombardia",
"cnome":"",
"canno_inserimento":"2012",
"cdata_e_ora_inserimento":"2012-09-13T08:43:04Z",
"cidentificatore_in_openstreetmap":"1912537468",
"clongitudine":"8.88852589999999",
"clatitudine":"45.6327398999999"
}
,
{
"ccomune":"Origgio",
"cprovincia":"VARESE",
"cregione":"Lombardia",
"cnome":"",
"canno_inserimento":"2010",
"cdata_e_ora_inserimento":"2010-03-04T10:01:20Z",
"cidentificatore_in_openstreetmap":"660121664",
"clongitudine":"9.0144688",
"clatitudine":"45.5852860999999"
}
,
{
"ccomune":"Origgio",
"cprovincia":"VARESE",
"cregione":"Lombardia",
"cnome":"Buenavista",
"canno_inserimento":"2012",
"cdata_e_ora_inserimento":"2012-10-29T14:18:54Z",
"cidentificatore_in_openstreetmap":"1654210859",
"clongitudine":"9.0215457",
"clatitudine":"45.6082396999999"
}
,
{
"ccomune":"Orino",
"cprovincia":"VARESE",
"cregione":"Lombardia",
"cnome":"La Rambla",
"canno_inserimento":"2011",
"cdata_e_ora_inserimento":"2011-12-27T20:08:40Z",
"cidentificatore_in_openstreetmap":"1564262704",
"clongitudine":"8.7202686",
"clatitudine":"45.8866992"
}
,
{
"ccomune":"Porto Valtravaglia",
"cprovincia":"VARESE",
"cregione":"Lombardia",
"cnome":"",
"canno_inserimento":"2015",
"cdata_e_ora_inserimento":"2015-08-19T21:50:01Z",
"cidentificatore_in_openstreetmap":"3705630757",
"clongitudine":"8.706979",
"clatitudine":"45.9618978999999"
}
,
{
"ccomune":"Saronno",
"cprovincia":"VARESE",
"cregione":"Lombardia",
"cnome":"",
"canno_inserimento":"2012",
"cdata_e_ora_inserimento":"2012-09-09T16:32:21Z",
"cidentificatore_in_openstreetmap":"1907124869",
"clongitudine":"9.0313572",
"clatitudine":"45.6290076"
}
,
{
"ccomune":"Saronno",
"cprovincia":"VARESE",
"cregione":"Lombardia",
"cnome":"Bray Hill",
"canno_inserimento":"2014",
"cdata_e_ora_inserimento":"2014-11-25T17:32:40Z",
"cidentificatore_in_openstreetmap":"1907140529",
"clongitudine":"9.0303165",
"clatitudine":"45.6286846"
}
,
{
"ccomune":"Sesto Calende",
"cprovincia":"VARESE",
"cregione":"Lombardia",
"cnome":"La Mosca Bianca",
"canno_inserimento":"2015",
"cdata_e_ora_inserimento":"2015-09-18T15:03:21Z",
"cidentificatore_in_openstreetmap":"3749357559",
"clongitudine":"8.6398864",
"clatitudine":"45.7252433"
}
,
{
"ccomune":"Somma Lombardo",
"cprovincia":"VARESE",
"cregione":"Lombardia",
"cnome":"dal Capitano",
"canno_inserimento":"2014",
"cdata_e_ora_inserimento":"2014-03-01T14:07:59Z",
"cidentificatore_in_openstreetmap":"2333695727",
"clongitudine":"8.7069869",
"clatitudine":"45.6800848"
}
,
{
"ccomune":"Somma Lombardo",
"cprovincia":"VARESE",
"cregione":"Lombardia",
"cnome":"Lord Nelson Pub",
"canno_inserimento":"2014",
"cdata_e_ora_inserimento":"2014-09-12T14:16:29Z",
"cidentificatore_in_openstreetmap":"2333695723",
"clongitudine":"8.70711069999999",
"clatitudine":"45.6803037999999"
}
,
{
"ccomune":"Travedona-Monate",
"cprovincia":"VARESE",
"cregione":"Lombardia",
"cnome":"Fuorigiri",
"canno_inserimento":"2013",
"cdata_e_ora_inserimento":"2013-06-13T13:01:12Z",
"cidentificatore_in_openstreetmap":"2343277466",
"clongitudine":"8.67442849999999",
"clatitudine":"45.8032049999999"
}
